bikeStationID,name,latitude,longitude,category,rating,numReviews
1,La Taqueria Pinche Taco Shop,49.263559,-123.112736,Mexican,4.0,681
1,Saku,49.2631006,-123.11667523250104,Japanese,4.5,218
1,Hokkaido Ramen Santouka,49.263127,-123.1168917,"Noodles,Ramen,Soup",4.0,222
1,Marulilu Cafe,49.26338,-123.11415,Cafes,4.0,285
1,Uma Sushi,49.2638048,-123.1137294,"Japanese,Sushi Bars",4.5,111
1,iDen & Quan Ju De Beijing Duck House,49.26021,-123.1148451,Chinese,3.5,94
1,Menya Raizo,49.26336,-123.11314,Ramen,4.0,74
1,Peaceful Restaurant,49.263147,-123.116143,"Chinese,Noodles",3.5,621
1,Cactus Club Cafe,49.2633734327403,-123.117130327243,"Canadian (New),Cocktail Bars",3.5,144
1,Heritage Asian Eatery,49.26287,-123.11247,"Pan Asian,Chinese",4.0,87
1,Rogue Kitchen & Wetbar,49.263047,-123.117827,"American (Traditional),Gastropubs",3.5,145
1,Westcoast Poke,49.26409,-123.1140415,"Hawaiian,Poke",4.0,171
1,Seaport City Seafood Restaurant,49.263921119674905,-123.115152,Dim Sum,4.5,21
1,Yolks,49.2631139,-123.1163529,"Coffee & Tea,Breakfast & Brunch",3.5,346
1,Indian Roti Kitchen,49.25901,-123.11538,Indian,4.5,158
1,Anh and Chi,49.2550314422938,-123.100882202153,"Vietnamese,Cocktail Bars",4.0,618
1,Regal Mansion Cuisine Seafood Restaurant,49.26099858201743,-123.11651119496848,"Chinese,Seafood",4.0,28
1,Meet the CM happy hour: Rogue Kitchen & Wetbar,49.262982,-123.117802,"Yelp Events,American (Traditional),Gastropubs",4.5,25
1,Sushi California,49.2630454633729,-123.112614326016,"Japanese,Sushi Bars",3.5,317
1,Aperture Coffee Bar,49.2632037459,-123.110469593,"Coffee & Tea,Breakfast & Brunch,Art Galleries",4.0,124
1,Vij's Restaurant,49.25754,-123.11479,Indian,4.0,389
1,Gyu-Kaku Japanese BBQ,49.2633338,-123.1255837,"Barbeque,Japanese,Asian Fusion",4.0,197
1,The Cascade Room,49.2617,-123.10062,"Pubs,Canadian (New),Cocktail Bars",4.0,231
1,Burgoo Bistros,49.25763,-123.10084,"Comfort Food,Bistros",4.0,498
1,Jollibee,49.2628615714721,-123.1151665,"Fast Food,Chicken Shop",3.5,28
1,Yu Shang Hot Pot,49.263149,-123.125629,Hot Pot,4.5,77
1,Maizal RMF,49.2600097,-123.1012988,Mexican,4.5,146
1,Caffe Cittadella,49.264809386635505,-123.11726668221056,"Coffee & Tea,Bistros",4.0,157
1,Passion8 Dessert Cafe,49.258435242883,-123.11499774456,"Desserts,Korean,Coffee & Tea",4.0,210
1,City of Vancouver,49.26088379999999,-123.1139269,Local Flavor,4.5,11
1,Foret Noire Patisserie,49.26284,-123.11051,"Desserts,Patisserie/Cake Shop,Coffee & Tea",4.0,57
1,Dynasty Seafood Restaurant,49.2635999,-123.12138,"Dim Sum,Seafood",3.5,294
1,The Golden Horn Turkish Bakery & Cafe,49.25981092848732,-123.11528339982031,"Coffee & Tea,Bakeries,Cafes",5.0,10
1,Cafe & Life Co.,49.265218,-123.116184,Cafes,4.5,12
1,Simit Bakery,49.2632345,-123.1087722,"Bakeries,Bagels,Turkish",4.5,38
1,Fable Diner,49.2630749,-123.1019822,"Diners,American (Traditional)",4.0,331
1,Elysian Coffee,49.26294,-123.11728,"Coffee & Tea,Bakeries",3.5,210
1,A.Bento,49.263164,-123.118857,"Taiwanese,Chinese,Asian Fusion",4.0,27
1,The Firewood Café,49.2584924,-123.1148336,Pizza,4.0,121
1,Rain or Shine Ice Cream,49.2551458,-123.1149293,"Desserts,Ice Cream & Frozen Yogurt",4.5,239
1,Earnest Ice Cream,49.2688628769236,-123.102919221177,Ice Cream & Frozen Yogurt,4.5,383
1,Pizzamia Gourmet Pizza Bar,49.2633224,-123.1132569,Pizza,4.5,7
1,Vancouver City Hall,49.2605249,-123.1140999,Landmarks & Historical Buildings,3.5,25
1,Banana Leaf,49.26302,-123.1225,"Malaysian,Singaporean",3.5,299
1,Pizza Rubato Napoletana,49.2635503,-123.1170685,Pizza,4.5,8
1,Nuba - Mount Pleasant,49.26797,-123.10171,"Mediterranean,Lebanese",4.0,160
1,Lotus Seed Vegan,49.2631751,-123.1204905,Vegan,4.0,127
1,Tropika On Cambie,49.2589,-123.11538,"Malaysian,Singaporean,Thai",3.0,174
1,Sharetea,49.2599346,-123.1148551,"Bubble Tea,Coffee & Tea,Juice Bars & Smoothies",4.0,48
1,Remi Patisserie,49.26522014947558,-123.11618389557644,Desserts,4.0,26
4,The Flying Pig,49.27501,-123.122,"Canadian (New),Seafood",4.0,1290
4,Minami,49.2752733,-123.1207029,"Japanese,Sushi Bars",4.0,751
4,Rodney's Oyster House,49.274326,-123.123131,Seafood,4.0,820
4,Brix & Mortar,49.27561628359493,-123.1219105,"Wine Bars,Canadian (New),Venues & Event Spaces",4.0,318
4,Blue Water Cafe,49.2761945,-123.1209935,Seafood,4.5,1062
4,Tasty Indian Bistro,49.2744011,-123.1236818,Indian,4.0,205
4,Robba da Matti,49.2753397,-123.1208967,"Italian,Tapas Bars",4.0,491
4,OEB Breakfast Co. Yaletown,49.2734341,-123.1192724,Breakfast & Brunch,4.5,733
4,Cioppino's Mediterranean Grill,49.275522,-123.121794,"Mediterranean,Italian",4.5,197
4,The Parlour,49.276835,-123.120221,"Pizza,Lounges,Tapas/Small Plates",4.0,463
4,MeeT in Yaletown,49.2748495736666,-123.121902530398,"Comfort Food,Gluten-Free,Vegetarian",4.0,163
4,Provence Marinaside,49.2733385,-123.1194637,"Seafood,French,Breakfast & Brunch",3.5,360
4,Elisa,49.2759562,-123.1213608,Steakhouses,4.0,196
4,The Greek By Anatoli,49.276285,-123.1197178,Greek,4.0,254
4,Cactus Club Cafe,49.27522297469047,-123.12280441720084,"Canadian (New),Cocktail Bars",3.5,211
4,Yaletown Brewing Company,49.2755483,-123.120817,"American (Traditional),Brewpubs",3.0,466
4,Fanny Bay Oyster Bar & Shellfish Market,49.2787525,-123.1138689,"Seafood,Seafood Markets",4.5,750
4,Hapa Izakaya,49.2752858645102,-123.12245045952,Japanese,3.5,211
4,Earls Kitchen + Bar,49.2757248,-123.1205558,"Canadian (New),Cocktail Bars",3.5,262
4,West Oak Restaurant,49.2764158,-123.1195458,"Seafood,Lounges,Steakhouses",3.5,259
4,The Keg Steakhouse + Bar - Yaletown,49.27665,-123.11944,"Steakhouses,Bars,Seafood",3.5,290
4,Little Saigon Yaletown,49.2737438258852,-123.123083556537,Vietnamese,3.5,98
4,Bistro Sakana,49.2752798,-123.1209644,"Japanese,Sushi Bars,Bistros",3.5,133
4,The Mexican Antojitos Y Cantina,49.2787726,-123.1240268,Mexican,4.5,402
4,Lupo,49.27823,-123.1174,Italian,4.5,437
4,Tacofino,49.2764357,-123.1194951,Mexican,4.0,165
4,Hundy,49.27562509135987,-123.1221336,"Burgers,Fast Food,Beer Bar",3.5,72
4,Sushi Maro,49.27491673721424,-123.12189090000004,"Sushi Bars,Japanese",3.5,88
4,Salsa & Agave Mexican Grill,49.2741278,-123.1217609,"Mexican,Bars",3.5,206
4,Nightshade,49.27604,-123.12042,"Vegan,Vegetarian",4.5,24
4,La Terrazza,49.275002841553594,-123.11867120010272,Italian,3.5,140
4,Banter Room,49.2763185,-123.1196683,"Canadian (New),Bars,Breakfast & Brunch",3.5,118
4,Happy Noodle House,49.27664,-123.12578,"Dim Sum,Noodles",4.5,82
4,Mister,49.2751985,-123.121387,Ice Cream & Frozen Yogurt,4.0,281
4,Manoush'eh,49.27667072314417,-123.12570086148996,Mediterranean,5.0,229
4,Jam Cafe on Beatty,49.2802586,-123.1096376,Breakfast & Brunch,4.5,1361
4,Ki-Isu Japanese Restaurant,49.2737478,-123.1232254,"Japanese,Sushi Bars",3.5,119
4,Medina Cafe,49.2804429972571,-123.117036269849,"Breakfast & Brunch,Middle Eastern,Wine Bars",4.0,2585
4,Nero Waffles,49.27834403099929,-123.122044653573,"Waffles,Coffee & Tea",4.5,491
4,Nuba in Yaletown,49.27592284071101,-123.1245237819059,"Mediterranean,Middle Eastern,Vegetarian",4.0,102
4,Angus T,49.2762326068102,-123.119233623147,"Cafes,Bakeries",4.0,93
4,Jinya Ramen Bar - Vancouver,49.2803264,-123.11793569570304,Ramen,4.0,429
4,Ancora Waterfront Dining and Patio,49.273853456158875,-123.13257765112428,"Seafood,Japanese,Peruvian",4.0,218
4,Nuba in Gastown,49.2827625062516,-123.109646101134,"Mediterranean,Lebanese",4.0,745
4,Tom Sushi,49.2815608,-123.1327476,"Sushi Bars,Japanese",4.5,196
4,Sushi Jin,49.2795794102629,-123.123817518353,"Japanese,Sushi Bars",4.5,137
4,Chambar,49.2801460007961,-123.109925328073,Belgian,4.0,1535
4,Kaide Sushi,49.2742161,-123.1270679,Sushi Bars,4.5,238
4,Zab Zaab Thai Cuisine,49.27493,-123.12321,"Thai,Cideries,Cocktail Bars",4.5,21
4,Small Victory Bakery,49.27648024736094,-123.121204593404,"Coffee & Tea,Bakeries,Cafes",4.0,306
5,Fanny Bay Oyster Bar & Shellfish Market,49.2787525,-123.1138689,"Seafood,Seafood Markets",4.5,750
5,Chambar,49.2801460007961,-123.109925328073,Belgian,4.0,1535
5,Jam Cafe on Beatty,49.2802586,-123.1096376,Breakfast & Brunch,4.5,1361
5,Pizzeria Ludica,49.2800427277576,-123.108486811639,"Pizza,Italian,Tabletop Games",4.0,184
5,Caveman Cafe,49.280802324947445,-123.10703500282293,"Organic Stores,Salad,Cafes",4.5,271
5,Miku,49.28691753455261,-123.11276314110472,"Japanese,Sushi Bars,Vegetarian",4.5,2198
5,Devil's Elbow Ale & Smoke House,49.2801437,-123.1098099,"Gastropubs,Barbeque,Smokehouse",3.5,194
5,TAKO,49.278816,-123.1078822,"Korean,Mexican",4.0,218
5,Nuba in Gastown,49.2827625062516,-123.109646101134,"Mediterranean,Lebanese",4.0,745
5,Tsuki Sushi Bar,49.2809829711914,-123.10765838623,"Sushi Bars,Japanese",4.0,196
5,Tokyo In April,49.2806813,-123.1073936,Japanese,4.5,51
5,Phnom Penh,49.278431,-123.098205,"Cambodian,Vietnamese",4.0,1597
5,Black Rice Izakaya,49.278444,-123.114329,"Japanese,Sushi Bars,Tapas Bars",4.0,294
5,Twisted Fork,49.283194,-123.104445,"French,Breakfast & Brunch",4.0,1099
5,Blue Water Cafe,49.2761945,-123.1209935,Seafood,4.5,1062
5,Browns Socialhouse QE Theatre,49.28022,-123.11287,"Burgers,Pubs",4.0,39
5,Medina Cafe,49.2804429972571,-123.117036269849,"Breakfast & Brunch,Middle Eastern,Wine Bars",4.0,2585
5,Gotham Steakhouse & Bar,49.2829254,-123.115793,"Steakhouses,Cocktail Bars,Seafood",4.0,420
5,The Flying Pig,49.27501,-123.122,"Canadian (New),Seafood",4.0,1290
5,Frankie's Italian Kitchen,49.2779493,-123.1137363,"Italian,Wine Bars,Breakfast & Brunch",3.5,152
5,Pourhouse Restaurant,49.2841134475502,-123.10842879595,"Cocktail Bars,Comfort Food,Burgers",4.0,552
5,Lupo,49.27823,-123.1174,Italian,4.5,437
5,The Dirty Apron Delicatessen,49.2805632,-123.1091772,"Cafes,Delicatessen,Breakfast & Brunch",4.5,69
5,Jinya Ramen Bar - Vancouver,49.2803264,-123.11793569570304,Ramen,4.0,429
5,Meat & Bread,49.2826255017147,-123.109336831057,"Sandwiches,Soup,Salad",4.0,785
5,Rodney's Oyster House,49.274326,-123.123131,Seafood,4.0,820
5,Chinatown BBQ,49.280294,-123.1015,"Chinese,Barbeque",4.5,261
5,Hawksworth Restaurant,49.2833971,-123.1191704,Canadian (New),4.0,643
5,La Taqueria Pinche Taco Shop,49.282912,-123.110593,"Mexican,Cocktail Bars",4.5,521
5,Sushi Den,49.2793121337891,-123.107757568359,"Japanese,Sushi Bars",3.0,167
5,Robba da Matti,49.2753397,-123.1208967,"Italian,Tapas Bars",4.0,491
5,Minami,49.2752733,-123.1207029,"Japanese,Sushi Bars",4.0,751
5,Di Beppe,49.28237705581659,-123.10450043738042,Italian,4.0,136
5,Six Acres,49.2833119,-123.1044042,"Pubs,Canadian (New)",4.0,288
5,PiDGiN,49.2819071402452,-123.104188653967,"Japanese,Korean,French",4.0,320
5,St Lawrence Restaurant,49.2832584031253,-123.097993419888,French,4.5,140
5,OEB Breakfast Co. Yaletown,49.2734341,-123.1192724,Breakfast & Brunch,4.5,733
5,MeeT in Gastown,49.28343624826065,-123.1048494822089,"Comfort Food,Burgers,Breakfast & Brunch",4.0,492
5,Charisma Cafe & Dessert House,49.28018,-123.10866,"Desserts,Bubble Tea,Cafes",4.0,45
5,Papparoti,49.2799385,-123.1081741,"Coffee & Tea,Juice Bars & Smoothies,Sandwiches",4.5,39
5,The Magnet,49.2824018,-123.1110785,"Beer Bar,Tapas/Small Plates,Cocktail Bars",5.0,17
5,Hy's Steakhouse & Cocktail Bar,49.28468,-123.11927,"Steakhouses,Cocktail Bars,Seafood",4.0,341
5,Oyster Express,49.2792784082144,-123.097397130932,"Seafood,Bars,Soul Food",4.5,165
5,District Bar & Restaurant,49.2777057046774,-123.114148463454,"Cocktail Bars,Beer Bar,Burgers",4.0,91
5,Jules French Bistro,49.28361,-123.10638,French,4.0,227
5,Kokoro Tokyo Mazesoba,49.2833927,-123.115078,Japanese,4.0,447
5,Gringo,49.2831553214634,-123.105335897068,"Mexican,Bars,Tex-Mex",4.5,282
5,Cactus Club Cafe,49.28554081466174,-123.11881637137162,"Canadian (New),Cocktail Bars",4.0,477
5,Rodney's Oyster House,49.2831349,-123.1030172,"Seafood,Cajun/Creole",4.0,252
5,Nightingale,49.2874110331456,-123.117770967577,"Live/Raw Food,Canadian (New),Pizza",4.0,474
7,iDen & Quan Ju De Beijing Duck House,49.26021,-123.1148451,Chinese,3.5,94
7,Indian Roti Kitchen,49.25901,-123.11538,Indian,4.5,158
7,La Taqueria Pinche Taco Shop,49.263559,-123.112736,Mexican,4.0,681
7,Saku,49.2631006,-123.11667523250104,Japanese,4.5,218
7,Vij's Restaurant,49.25754,-123.11479,Indian,4.0,389
7,Marulilu Cafe,49.26338,-123.11415,Cafes,4.0,285
7,Hokkaido Ramen Santouka,49.263127,-123.1168917,"Noodles,Ramen,Soup",4.0,222
7,Passion8 Dessert Cafe,49.258435242883,-123.11499774456,"Desserts,Korean,Coffee & Tea",4.0,210
7,Tropika On Cambie,49.2589,-123.11538,"Malaysian,Singaporean,Thai",3.0,174
7,Heritage Asian Eatery,49.26287,-123.11247,"Pan Asian,Chinese",4.0,87
7,Anh and Chi,49.2550314422938,-123.100882202153,"Vietnamese,Cocktail Bars",4.0,618
7,Peaceful Restaurant,49.263147,-123.116143,"Chinese,Noodles",3.5,621
7,Menya Raizo,49.26336,-123.11314,Ramen,4.0,74
7,Regal Mansion Cuisine Seafood Restaurant,49.26099858201743,-123.11651119496848,"Chinese,Seafood",4.0,28
7,Uma Sushi,49.2638048,-123.1137294,"Japanese,Sushi Bars",4.5,111
7,Published On Main,49.25283186017385,-123.10116032897228,"Tapas/Small Plates,Wine Bars,Cocktail Bars",4.5,99
7,Yolks,49.2631139,-123.1163529,"Coffee & Tea,Breakfast & Brunch",3.5,346
7,The Firewood Café,49.2584924,-123.1148336,Pizza,4.0,121
7,The Golden Horn Turkish Bakery & Cafe,49.25981092848732,-123.11528339982031,"Coffee & Tea,Bakeries,Cafes",5.0,10
7,City of Vancouver,49.26088379999999,-123.1139269,Local Flavor,4.5,11
7,Seaport City Seafood Restaurant,49.263921119674905,-123.115152,Dim Sum,4.5,21
7,Westcoast Poke,49.26409,-123.1140415,"Hawaiian,Poke",4.0,171
7,Kyu Grill,49.2603797912598,-123.113357543945,"Food Trucks,Japanese,Asian Fusion",4.0,13
7,Vancouver City Hall,49.2605249,-123.1140999,Landmarks & Historical Buildings,3.5,25
7,Rogue Kitchen & Wetbar,49.263047,-123.117827,"American (Traditional),Gastropubs",3.5,145
7,Aperture Coffee Bar,49.2632037459,-123.110469593,"Coffee & Tea,Breakfast & Brunch,Art Galleries",4.0,124
7,The Cascade Room,49.2617,-123.10062,"Pubs,Canadian (New),Cocktail Bars",4.0,231
7,Burgoo Bistros,49.25763,-123.10084,"Comfort Food,Bistros",4.0,498
7,Maizal RMF,49.2600097,-123.1012988,Mexican,4.5,146
7,Sushi California,49.2630454633729,-123.112614326016,"Japanese,Sushi Bars",3.5,317
7,Gyu-Kaku Japanese BBQ,49.2633338,-123.1255837,"Barbeque,Japanese,Asian Fusion",4.0,197
7,Yu Shang Hot Pot,49.263149,-123.125629,Hot Pot,4.5,77
7,Zarak By Afghan Kitchen,49.266224,-123.1006089,"Afghan,Cocktail Bars,Breakfast & Brunch",4.5,66
7,Shiro,49.2580042,-123.1149151,"Japanese,Sushi Bars",4.0,244
7,Cactus Club Cafe,49.2633734327403,-123.117130327243,"Canadian (New),Cocktail Bars",3.5,144
7,Sharetea,49.2599346,-123.1148551,"Bubble Tea,Coffee & Tea,Juice Bars & Smoothies",4.0,48
7,Fable Diner,49.2630749,-123.1019822,"Diners,American (Traditional)",4.0,331
7,Rain or Shine Ice Cream,49.2551458,-123.1149293,"Desserts,Ice Cream & Frozen Yogurt",4.5,239
7,Dynasty Seafood Restaurant,49.2635999,-123.12138,"Dim Sum,Seafood",3.5,294
7,Earnest Ice Cream,49.2688628769236,-123.102919221177,Ice Cream & Frozen Yogurt,4.5,383
7,Meet the CM happy hour: Rogue Kitchen & Wetbar,49.262982,-123.117802,"Yelp Events,American (Traditional),Gastropubs",4.5,25
7,Simit Bakery,49.2632345,-123.1087722,"Bakeries,Bagels,Turkish",4.5,38
7,Nuba - Mount Pleasant,49.26797,-123.10171,"Mediterranean,Lebanese",4.0,160
7,Foret Noire Patisserie,49.26284,-123.11051,"Desserts,Patisserie/Cake Shop,Coffee & Tea",4.0,57
7,BMO Vancouver Marathon,49.2603797912598,-123.113357543945,"Local Flavor,Active Life",3.5,17
7,49th Parallel Coffee,49.2591330651218,-123.10088478104,"Cafes,Coffee & Tea,Donuts",4.0,501
7,Elephant Garden Creamery,49.2661487,-123.0694056,"Food Stands,Ice Cream & Frozen Yogurt,Desserts",4.5,134
7,Banana Leaf,49.26302,-123.1225,"Malaysian,Singaporean",3.5,299
7,Sushi Hil,49.2554661,-123.1011451,"Japanese,Sushi Bars",4.5,23
7,Caffe Cittadella,49.264809386635505,-123.11726668221056,"Coffee & Tea,Bistros",4.0,157
8,Saku,49.2631006,-123.11667523250104,Japanese,4.5,218
8,Hokkaido Ramen Santouka,49.263127,-123.1168917,"Noodles,Ramen,Soup",4.0,222
8,Rogue Kitchen & Wetbar,49.263047,-123.117827,"American (Traditional),Gastropubs",3.5,145
8,Dynasty Seafood Restaurant,49.2635999,-123.12138,"Dim Sum,Seafood",3.5,294
8,La Taqueria Pinche Taco Shop,49.263559,-123.112736,Mexican,4.0,681
8,Cactus Club Cafe,49.2633734327403,-123.117130327243,"Canadian (New),Cocktail Bars",3.5,144
8,Peaceful Restaurant,49.263147,-123.116143,"Chinese,Noodles",3.5,621
8,Marulilu Cafe,49.26338,-123.11415,Cafes,4.0,285
8,Seaport City Seafood Restaurant,49.263921119674905,-123.115152,Dim Sum,4.5,21
8,Yolks,49.2631139,-123.1163529,"Coffee & Tea,Breakfast & Brunch",3.5,346
8,Meet the CM happy hour: Rogue Kitchen & Wetbar,49.262982,-123.117802,"Yelp Events,American (Traditional),Gastropubs",4.5,25
8,Uma Sushi,49.2638048,-123.1137294,"Japanese,Sushi Bars",4.5,111
8,Caffe Cittadella,49.264809386635505,-123.11726668221056,"Coffee & Tea,Bistros",4.0,157
8,Westcoast Poke,49.26409,-123.1140415,"Hawaiian,Poke",4.0,171
8,Salmon n' Bannock,49.2631378,-123.1296705,Canadian (New),4.5,204
8,A.Bento,49.263164,-123.118857,"Taiwanese,Chinese,Asian Fusion",4.0,27
8,Banana Leaf,49.26302,-123.1225,"Malaysian,Singaporean",3.5,299
8,Lotus Seed Vegan,49.2631751,-123.1204905,Vegan,4.0,127
8,Cafe & Life Co.,49.265218,-123.116184,Cafes,4.5,12
8,Vij's Restaurant,49.25754,-123.11479,Indian,4.0,389
8,Gyu-Kaku Japanese BBQ,49.2633338,-123.1255837,"Barbeque,Japanese,Asian Fusion",4.0,197
8,Indian Roti Kitchen,49.25901,-123.11538,Indian,4.5,158
8,Yu Shang Hot Pot,49.263149,-123.125629,Hot Pot,4.5,77
8,Menya Raizo,49.26336,-123.11314,Ramen,4.0,74
8,Remi Patisserie,49.26522014947558,-123.11618389557644,Desserts,4.0,26
8,Heritage Asian Eatery,49.26287,-123.11247,"Pan Asian,Chinese",4.0,87
8,Regal Mansion Cuisine Seafood Restaurant,49.26099858201743,-123.11651119496848,"Chinese,Seafood",4.0,28
8,Pizza Rubato Napoletana,49.2635503,-123.1170685,Pizza,4.5,8
8,Tractor,49.2634674383775,-123.118251698812,Breakfast & Brunch,3.5,27
8,Yanaki Sushi,49.2657961,-123.1219663,"Japanese,Sushi Bars",4.0,76
8,Passion8 Dessert Cafe,49.258435242883,-123.11499774456,"Desserts,Korean,Coffee & Tea",4.0,210
8,Sushi Dragon,49.2631475,-123.118358,"Japanese,Sushi Bars",4.0,91
8,OneZo Tapioca,49.2630371,-123.1180803,"Bubble Tea,Juice Bars & Smoothies",4.5,14
8,I Cafe,49.2630451,-123.1200749,Chinese,3.0,63
8,Elysian Coffee,49.26294,-123.11728,"Coffee & Tea,Bakeries",3.5,210
8,iDen & Quan Ju De Beijing Duck House,49.26021,-123.1148451,Chinese,3.5,94
8,Aperture Coffee Bar,49.2632037459,-123.110469593,"Coffee & Tea,Breakfast & Brunch,Art Galleries",4.0,124
8,Sushi California,49.2630454633729,-123.112614326016,"Japanese,Sushi Bars",3.5,317
8,Jollibee,49.2628615714721,-123.1151665,"Fast Food,Chicken Shop",3.5,28
8,La Ruota,49.26457006285351,-123.1152291,"Pizza,Italian",4.0,14
8,Kamei on Broadway,49.263643,-123.118152,"Japanese,Sushi Bars,Asian Fusion",4.0,18
8,Dockside Restaurant,49.2693844631928,-123.13101576314,Seafood,3.0,275
8,Genki Eki Noodle bar,49.263459,-123.119582,"Japanese,Noodles",4.5,3
8,Shanghai Lu,49.2634754435166,-123.120027557015,Dim Sum,2.5,56
8,Elephant Garden Creamery,49.2661487,-123.0694056,"Food Stands,Ice Cream & Frozen Yogurt,Desserts",4.5,134
8,Whole Food Market,49.2640495,-123.1150513,"Coffee & Tea,Cafes,Beer, Wine & Spirits",4.0,18
8,The Flying Pig - Village,49.2694549333199,-123.10744805094537,Canadian (New),3.5,206
8,CRAFT Beer Market,49.2702147,-123.1060713,"Beer Bar,Burgers,Canadian (New)",3.5,518
8,Gusto A Taste of Italy,49.2714006565536,-123.10593623668,"Desserts,Italian,Coffee & Tea",4.5,84
8,Blenz Coffee,49.2634411,-123.1198158,"Coffee & Tea,Sandwiches",3.5,22
9,Fanny Bay Oyster Bar & Shellfish Market,49.2787525,-123.1138689,"Seafood,Seafood Markets",4.5,750
9,The Flying Pig,49.27501,-123.122,"Canadian (New),Seafood",4.0,1290
9,OEB Breakfast Co. Yaletown,49.2734341,-123.1192724,Breakfast & Brunch,4.5,733
9,Blue Water Cafe,49.2761945,-123.1209935,Seafood,4.5,1062
9,Rodney's Oyster House,49.274326,-123.123131,Seafood,4.0,820
9,Minami,49.2752733,-123.1207029,"Japanese,Sushi Bars",4.0,751
9,Robba da Matti,49.2753397,-123.1208967,"Italian,Tapas Bars",4.0,491
9,Lupo,49.27823,-123.1174,Italian,4.5,437
9,The Mexican Antojitos Y Cantina,49.2787726,-123.1240268,Mexican,4.5,402
9,La Taqueria Pinche Taco Shop,49.263559,-123.112736,Mexican,4.0,681
9,Provence Marinaside,49.2733385,-123.1194637,"Seafood,French,Breakfast & Brunch",3.5,360
9,Tasty Indian Bistro,49.2744011,-123.1236818,Indian,4.0,205
9,Saku,49.2631006,-123.11667523250104,Japanese,4.5,218
9,The Parlour,49.276835,-123.120221,"Pizza,Lounges,Tapas/Small Plates",4.0,463
9,Sushi Jin,49.2795794102629,-123.123817518353,"Japanese,Sushi Bars",4.5,137
9,Brix & Mortar,49.27561628359493,-123.1219105,"Wine Bars,Canadian (New),Venues & Event Spaces",4.0,318
9,Cioppino's Mediterranean Grill,49.275522,-123.121794,"Mediterranean,Italian",4.5,197
9,Burgoo Bistro,49.27968,-123.12763,"Comfort Food,Bistros",4.0,171
9,Manoush'eh,49.27667072314417,-123.12570086148996,Mediterranean,5.0,229
9,MeeT in Yaletown,49.2748495736666,-123.121902530398,"Comfort Food,Gluten-Free,Vegetarian",4.0,163
9,Elisa,49.2759562,-123.1213608,Steakhouses,4.0,196
9,Black Rice Izakaya,49.278444,-123.114329,"Japanese,Sushi Bars,Tapas Bars",4.0,294
9,Hokkaido Ramen Santouka,49.263127,-123.1168917,"Noodles,Ramen,Soup",4.0,222
9,Yu Shang Hot Pot,49.263149,-123.125629,Hot Pot,4.5,77
9,The Pawn Shop YVR,49.2781054,-123.1252051,"Desserts,Bars,Mexican",4.0,158
9,Gyu-Kaku Japanese BBQ,49.2633338,-123.1255837,"Barbeque,Japanese,Asian Fusion",4.0,197
9,The Greek By Anatoli,49.276285,-123.1197178,Greek,4.0,254
9,Nero Waffles,49.27834403099929,-123.122044653573,"Waffles,Coffee & Tea",4.5,491
9,Happy Noodle House,49.27664,-123.12578,"Dim Sum,Noodles",4.5,82
9,Honey Salt,49.2753742,-123.1128477,"Canadian (New),Breakfast & Brunch,Lounges",3.5,266
9,Uma Sushi,49.2638048,-123.1137294,"Japanese,Sushi Bars",4.5,111
9,Maruhachi Ra-Men,49.27854065320407,-123.1157914,Ramen,4.0,256
9,The Keg Steakhouse + Bar - Yaletown,49.27665,-123.11944,"Steakhouses,Bars,Seafood",3.5,290
9,Straight Outta Brooklyn NYC Pizzeria,49.2791165,-123.1166227,"Pizza,Italian",4.0,231
9,Fritz European Fry House,49.2772045,-123.1265253,"Fast Food,Poutineries,Modern European",4.0,808
9,TAKO,49.278816,-123.1078822,"Korean,Mexican",4.0,218
9,Kaide Sushi,49.2742161,-123.1270679,Sushi Bars,4.5,238
9,Marulilu Cafe,49.26338,-123.11415,Cafes,4.0,285
9,Tutto,49.2784091,-123.1187139,"Italian,Bars",4.5,50
9,The Keefer Bar,49.2794866783565,-123.101473627377,"Lounges,Cocktail Bars",4.0,296
9,The Wicklow Public House,49.2687879,-123.1181376,Pubs,3.5,90
9,Earnest Ice Cream,49.2688628769236,-123.102919221177,Ice Cream & Frozen Yogurt,4.5,383
9,West Oak Restaurant,49.2764158,-123.1195458,"Seafood,Lounges,Steakhouses",3.5,259
9,Branas Mediterranean Grill,49.2686214,-123.1184584,"Mediterranean,Greek",3.5,64
9,Mahony’s Tavern,49.268991869566904,-123.11856069065676,Irish Pub,2.5,162
9,The Templeton,49.2785261,-123.1243982,"Breakfast & Brunch,Burgers,Tapas/Small Plates",4.0,528
9,Le Petit Belge,49.2789656680049,-123.116212114692,"Bakeries,Breakfast & Brunch,Belgian",4.0,344
9,Yaletown Brewing Company,49.2755483,-123.120817,"American (Traditional),Brewpubs",3.0,466
9,Per Se Social Corner,49.2785831916346,-123.118480343303,"Pizza,Cafes,Italian",3.5,239
9,District Bar & Restaurant,49.2777057046774,-123.114148463454,"Cocktail Bars,Beer Bar,Burgers",4.0,91
10,Mahony’s Tavern,49.268991869566904,-123.11856069065676,Irish Pub,2.5,162
10,The Flying Pig,49.27501,-123.122,"Canadian (New),Seafood",4.0,1290
10,Blue Water Cafe,49.2761945,-123.1209935,Seafood,4.5,1062
10,Rodney's Oyster House,49.274326,-123.123131,Seafood,4.0,820
10,OEB Breakfast Co. Yaletown,49.2734341,-123.1192724,Breakfast & Brunch,4.5,733
10,Robba da Matti,49.2753397,-123.1208967,"Italian,Tapas Bars",4.0,491
10,The Wicklow Public House,49.2687879,-123.1181376,Pubs,3.5,90
10,Minami,49.2752733,-123.1207029,"Japanese,Sushi Bars",4.0,751
10,La Taqueria Pinche Taco Shop,49.263559,-123.112736,Mexican,4.0,681
10,Salmon n' Bannock,49.2631378,-123.1296705,Canadian (New),4.5,204
10,Branas Mediterranean Grill,49.2686214,-123.1184584,"Mediterranean,Greek",3.5,64
10,Tasty Indian Bistro,49.2744011,-123.1236818,Indian,4.0,205
10,Saku,49.2631006,-123.11667523250104,Japanese,4.5,218
10,Cioppino's Mediterranean Grill,49.275522,-123.121794,"Mediterranean,Italian",4.5,197
10,Brix & Mortar,49.27561628359493,-123.1219105,"Wine Bars,Canadian (New),Venues & Event Spaces",4.0,318
10,Provence Marinaside,49.2733385,-123.1194637,"Seafood,French,Breakfast & Brunch",3.5,360
10,The Parlour,49.276835,-123.120221,"Pizza,Lounges,Tapas/Small Plates",4.0,463
10,Hokkaido Ramen Santouka,49.263127,-123.1168917,"Noodles,Ramen,Soup",4.0,222
10,MeeT in Yaletown,49.2748495736666,-123.121902530398,"Comfort Food,Gluten-Free,Vegetarian",4.0,163
10,Manoush'eh,49.27667072314417,-123.12570086148996,Mediterranean,5.0,229
10,Elisa,49.2759562,-123.1213608,Steakhouses,4.0,196
10,Gyu-Kaku Japanese BBQ,49.2633338,-123.1255837,"Barbeque,Japanese,Asian Fusion",4.0,197
10,Yu Shang Hot Pot,49.263149,-123.125629,Hot Pot,4.5,77
10,Linh Cafe,49.2746716,-123.12989802,"Vietnamese,French",4.0,301
10,The Greek By Anatoli,49.276285,-123.1197178,Greek,4.0,254
10,Happy Noodle House,49.27664,-123.12578,"Dim Sum,Noodles",4.5,82
10,Uno Gelato,49.2690961861894,-123.118500709534,Ice Cream & Frozen Yogurt,4.5,13
10,Number E Food,49.277569151917,-123.131018212403,"Sandwiches,Coffee & Tea",5.0,138
10,Maxine's Cafe & Bar,49.27807,-123.13131,"Bars,Breakfast & Brunch,Cafes",4.5,76
10,Uma Sushi,49.2638048,-123.1137294,"Japanese,Sushi Bars",4.5,111
10,Marulilu Cafe,49.26338,-123.11415,Cafes,4.0,285
10,Fritz European Fry House,49.2772045,-123.1265253,"Fast Food,Poutineries,Modern European",4.0,808
10,Kaide Sushi,49.2742161,-123.1270679,Sushi Bars,4.5,238
10,The Keg Steakhouse + Bar - Yaletown,49.27665,-123.11944,"Steakhouses,Bars,Seafood",3.5,290
10,Dynasty Seafood Restaurant,49.2635999,-123.12138,"Dim Sum,Seafood",3.5,294
10,West Oak Restaurant,49.2764158,-123.1195458,"Seafood,Lounges,Steakhouses",3.5,259
10,Giardino,49.276991,-123.1301021,Italian,4.0,123
10,District Bar & Restaurant,49.2777057046774,-123.114148463454,"Cocktail Bars,Beer Bar,Burgers",4.0,91
10,Yaletown Brewing Company,49.2755483,-123.120817,"American (Traditional),Brewpubs",3.0,466
10,Nightshade,49.27604,-123.12042,"Vegan,Vegetarian",4.5,24
10,Nuba in Yaletown,49.27592284071101,-123.1245237819059,"Mediterranean,Middle Eastern,Vegetarian",4.0,102
10,Honey Salt,49.2753742,-123.1128477,"Canadian (New),Breakfast & Brunch,Lounges",3.5,266
10,Angus T,49.2762326068102,-123.119233623147,"Cafes,Bakeries",4.0,93
10,Peaceful Restaurant,49.263147,-123.116143,"Chinese,Noodles",3.5,621
10,Banana Leaf,49.26302,-123.1225,"Malaysian,Singaporean",3.5,299
10,Seaport City Seafood Restaurant,49.263921119674905,-123.115152,Dim Sum,4.5,21
10,Dockside Restaurant,49.2693844631928,-123.13101576314,Seafood,3.0,275
10,Caffe Cittadella,49.264809386635505,-123.11726668221056,"Coffee & Tea,Bistros",4.0,157
10,Yanaki Sushi,49.2657961,-123.1219663,"Japanese,Sushi Bars",4.0,76
10,iDen & Quan Ju De Beijing Duck House,49.26021,-123.1148451,Chinese,3.5,94
11,CRAFT Beer Market,49.2702147,-123.1060713,"Beer Bar,Burgers,Canadian (New)",3.5,518
11,Fanny Bay Oyster Bar & Shellfish Market,49.2787525,-123.1138689,"Seafood,Seafood Markets",4.5,750
11,Tap & Barrel - Olympic Village,49.2715389,-123.106136,"American (Traditional),Wine Bars,Beer Bar",3.0,447
11,Johnnie Fox's Irish Pub,49.27142,-123.10129,"Irish,Pubs",4.0,117
11,Phnom Penh,49.278431,-123.098205,"Cambodian,Vietnamese",4.0,1597
11,Gusto A Taste of Italy,49.2714006565536,-123.10593623668,"Desserts,Italian,Coffee & Tea",4.5,84
11,Bodega On Main,49.2752787,-123.0997112,"Spanish,Tapas/Small Plates,Tapas Bars",4.0,212
11,Jam Cafe on Beatty,49.2802586,-123.1096376,Breakfast & Brunch,4.5,1361
11,Oyster Express,49.2792784082144,-123.097397130932,"Seafood,Bars,Soul Food",4.5,165
11,Chambar,49.2801460007961,-123.109925328073,Belgian,4.0,1535
11,Lupo,49.27823,-123.1174,Italian,4.5,437
11,Chinatown BBQ,49.280294,-123.1015,"Chinese,Barbeque",4.5,261
11,Terra Breads,49.27144458615277,-123.1067987907931,"Bakeries,Cafes",4.0,134
11,La Taqueria Pinche Taco Shop,49.263559,-123.112736,Mexican,4.0,681
11,Jinya Ramen Bar - Vancouver,49.2803264,-123.11793569570304,Ramen,4.0,429
11,Medina Cafe,49.2804429972571,-123.117036269849,"Breakfast & Brunch,Middle Eastern,Wine Bars",4.0,2585
11,The Flying Pig - Village,49.2694549333199,-123.10744805094537,Canadian (New),3.5,206
11,Earnest Ice Cream,49.2688628769236,-123.102919221177,Ice Cream & Frozen Yogurt,4.5,383
11,Saku,49.2631006,-123.11667523250104,Japanese,4.5,218
11,AJ's Brooklyn Pizza Joint,49.2629437687572,-123.098307028413,Pizza,4.5,138
11,Science World,49.27338,-123.103836,Museums,4.0,190
11,Bao Bei Chinese Brasserie,49.2796095312486,-123.100574596039,Chinese,4.0,416
11,The Irish Heather Shebeen,49.27845932651142,-123.09813082383894,"Irish,Gastropubs",4.0,246
11,MILA Plant-Based,49.27963,-123.10017,Vegan,4.5,88
11,Nuba - Mount Pleasant,49.26797,-123.10171,"Mediterranean,Lebanese",4.0,160
11,Zarak By Afghan Kitchen,49.266224,-123.1006089,"Afghan,Cocktail Bars,Breakfast & Brunch",4.5,66
11,Kissa Tanto,49.2806,-123.09812,"Japanese,Italian",4.0,279
11,Ophelia,49.2694549,-123.1083881,Mexican,3.5,58
11,Black Rice Izakaya,49.278444,-123.114329,"Japanese,Sushi Bars,Tapas Bars",4.0,294
11,Hokkaido Ramen Santouka,49.263127,-123.1168917,"Noodles,Ramen,Soup",4.0,222
11,Pizzeria Ludica,49.2800427277576,-123.108486811639,"Pizza,Italian,Tabletop Games",4.0,184
11,Virtuous Pie,49.279716,-123.0999343,"Pizza,Vegan,Ice Cream & Frozen Yogurt",4.0,286
11,Pacific Poke,49.2789026,-123.0999663,"Hawaiian,Poke",4.5,149
11,Crackle Creme,49.27776,-123.0981399,"Desserts,Coffee & Tea,Cafes",4.5,270
11,R&B Brewing,49.267258962520614,-123.10330380118866,"Breweries,Pizza,Beer Bar",4.0,68
11,Maruhachi Ra-Men,49.27854065320407,-123.1157914,Ramen,4.0,256
11,Uma Sushi,49.2638048,-123.1137294,"Japanese,Sushi Bars",4.5,111
11,TAKO,49.278816,-123.1078822,"Korean,Mexican",4.0,218
11,Straight Outta Brooklyn NYC Pizzeria,49.2791165,-123.1166227,"Pizza,Italian",4.0,231
11,Beta5 Chocolates,49.2696646,-123.0958401,"Chocolatiers & Shops,Desserts",4.5,302
11,The Keefer Bar,49.2794866783565,-123.101473627377,"Lounges,Cocktail Bars",4.0,296
11,Hon's Wonton House,49.2694661422672,-123.104120051588,Chinese,3.0,58
11,Pizzeria Farina,49.27662275332361,-123.10011416319465,"Pizza,Bars",4.0,228
11,Le Petit Belge,49.2789656680049,-123.116212114692,"Bakeries,Breakfast & Brunch,Belgian",4.0,344
11,Glory Juice,49.2690951,-123.1030816,"Juice Bars & Smoothies,Vegan,Acai Bowls",3.5,45
11,Fat Mao Noodles,49.27881,-123.09893,"Asian Fusion,Noodles,Thai",4.0,228
11,Fable Diner,49.2630749,-123.1019822,"Diners,American (Traditional)",4.0,331
11,Nook,49.269495877535,-123.109226971865,"Pizza,Italian",4.0,60
11,Blaze Gourmet Burgers,49.2666437,-123.1037431,"Fast Food,Burgers,Coffee & Tea",4.5,25
11,District Bar & Restaurant,49.2777057046774,-123.114148463454,"Cocktail Bars,Beer Bar,Burgers",4.0,91
14,Miku,49.28691753455261,-123.11276314110472,"Japanese,Sushi Bars,Vegetarian",4.5,2198
14,ARC Restaurant,49.2872868,-123.1137298,"Canadian (New),Cocktail Bars",4.0,167
14,Five Sails Restaurant,49.2880313351364,-123.113292160758,French,4.5,179
14,Botanist,49.2883099,-123.1167271,"Canadian (New),Diners,Breakfast & Brunch",4.5,371
14,Rogue Kitchen & Wetbar,49.28534134027417,-123.11143693120827,"American (Traditional),Gastropubs",3.5,395
14,Riley's Fish & Steak,49.287641996861865,-123.1151089,"Seafood,Diners,Steakhouses",4.0,48
14,Cactus Club Cafe,49.2895176422553,-123.1181077748714,"Canadian (New),Cocktail Bars",4.0,824
14,Nightingale,49.2874110331456,-123.117770967577,"Live/Raw Food,Canadian (New),Pizza",4.0,474
14,Fanny Bay Oyster Bar & Shellfish Market,49.2787525,-123.1138689,"Seafood,Seafood Markets",4.5,750
14,Tap & Barrel - Convention Centre,49.289845529586,-123.116857235515,Comfort Food,4.0,332
14,Steamworks Brewing Company,49.28498,-123.11084,"Pubs,Canadian (New),Breweries",3.5,792
14,Joe Fortes Seafood & Chop House,49.28493,-123.12473,"Seafood,Steakhouses",4.0,1237
14,Palate Kitchen,49.286331,-123.1157402,"Coffee & Tea,Breakfast & Brunch",4.0,99
14,Moose's Down Under,49.285638,-123.11634,"Pubs,Australian,Comfort Food",4.0,145
14,Cactus Club Cafe,49.28554081466174,-123.11881637137162,"Canadian (New),Cocktail Bars",4.0,477
14,The Lobby Lounge and RawBar,49.28816,-123.11659,"Lounges,Sushi Bars,Piano Bars",4.0,117
14,Hawksworth Restaurant,49.2833971,-123.1191704,Canadian (New),4.0,643
14,Gotham Steakhouse & Bar,49.2829254,-123.115793,"Steakhouses,Cocktail Bars,Seafood",4.0,420
14,Hy's Steakhouse & Cocktail Bar,49.28468,-123.11927,"Steakhouses,Cocktail Bars,Seafood",4.0,341
14,Mahony's Tavern,49.2893215484012,-123.11432178247,"Irish,Pubs",3.0,219
14,Guu with Otokomae,49.2847191,-123.11038556296398,"Japanese,Tapas Bars",4.0,378
14,Pourhouse Restaurant,49.2841134475502,-123.10842879595,"Cocktail Bars,Comfort Food,Burgers",4.0,552
14,Top of Vancouver Revolving Restaurant,49.28468,-123.11189,American (Traditional),3.0,367
14,Hydra Estiatorio,49.2856276,-123.1160679,Mediterranean,3.5,117
14,Jam Cafe on Beatty,49.2802586,-123.1096376,Breakfast & Brunch,4.5,1361
14,Nuba in Gastown,49.2827625062516,-123.109646101134,"Mediterranean,Lebanese",4.0,745
14,Browns Crafthouse Seymour,49.2841724124811,-123.113347974687,"Beer Bar,Canadian (New)",4.0,44
14,Chambar,49.2801460007961,-123.109925328073,Belgian,4.0,1535
14,Twisted Fork,49.283194,-123.104445,"French,Breakfast & Brunch",4.0,1099
14,Medina Cafe,49.2804429972571,-123.117036269849,"Breakfast & Brunch,Middle Eastern,Wine Bars",4.0,2585
14,The Mexican Antojitos Y Cantina,49.2787726,-123.1240268,Mexican,4.5,402
14,Chop Steakhouse & Bar,49.28853572427664,-123.11514429303064,"Steakhouses,Seafood,Lounges",4.0,17
14,Kokoro Tokyo Mazesoba,49.2833927,-123.115078,Japanese,4.0,447
14,Guu Original Thurlow,49.2839786648396,-123.125567978574,"Japanese,Tapas Bars",4.0,791
14,Black Frog Eatery,49.284598,-123.108687,"Pubs,American (Traditional)",4.0,214
14,Lupo,49.27823,-123.1174,Italian,4.5,437
14,Caveman Cafe,49.280802324947445,-123.10703500282293,"Organic Stores,Salad,Cafes",4.5,271
14,Alouette Bistro,49.2853,-123.11829,"French,Seafood,Cocktail Bars",4.5,35
14,Jinya Ramen Bar - Vancouver,49.2803264,-123.11793569570304,Ramen,4.0,429
14,The Poke Guy,49.2837389,-123.1120629,"Hawaiian,Poke",4.5,207
14,Chinatown BBQ,49.280294,-123.1015,"Chinese,Barbeque",4.5,261
14,Zaatar W Zeit,49.2844377,-123.1154382,Lebanese,4.0,59
14,Oceans 999,49.2881297,-123.1148699,"Canadian (New),Buffets",3.5,28
14,Mount Everest Kitchen & Grill,49.28343057225757,-123.1142148824853,"Indian,Himalayan/Nepalese,Noodles",4.5,44
14,Silvestre Deli & Bistro,49.2845603,-123.1092822,Peruvian,4.0,57
14,Alibi Room,49.284201944511,-123.1001915385,"Pubs,Canadian (New),Gastropubs",4.5,566
14,JOEY Burrard,49.2827851242953,-123.12316775322,"Canadian (New),Lounges,Steakhouses",4.0,556
14,Chickpea Food Truck,49.2870149,-123.1144564,"Food Trucks,Mediterranean,Vegetarian",4.0,82
14,Le Crocodile Restaurant,49.2822815356982,-123.124911131657,French,4.5,438
14,MeeT in Gastown,49.28343624826065,-123.1048494822089,"Comfort Food,Burgers,Breakfast & Brunch",4.0,492
15,Hawksworth Restaurant,49.2833971,-123.1191704,Canadian (New),4.0,643
15,Medina Cafe,49.2804429972571,-123.117036269849,"Breakfast & Brunch,Middle Eastern,Wine Bars",4.0,2585
15,Tokyo Katsu-Sand,49.2827218,-123.1182597,"Food Trucks,Japanese",4.0,24
15,Gotham Steakhouse & Bar,49.2829254,-123.115793,"Steakhouses,Cocktail Bars,Seafood",4.0,420
15,Miku,49.28691753455261,-123.11276314110472,"Japanese,Sushi Bars,Vegetarian",4.5,2198
15,Fanny Bay Oyster Bar & Shellfish Market,49.2787525,-123.1138689,"Seafood,Seafood Markets",4.5,750
15,Jinya Ramen Bar - Vancouver,49.2803264,-123.11793569570304,Ramen,4.0,429
15,Hy's Steakhouse & Cocktail Bar,49.28468,-123.11927,"Steakhouses,Cocktail Bars,Seafood",4.0,341
15,Joe Fortes Seafood & Chop House,49.28493,-123.12473,"Seafood,Steakhouses",4.0,1237
15,The Keg Steakhouse + Bar - Dunsmuir,49.283455277246034,-123.11635967248964,"Seafood,Steakhouses,Bars",4.0,179
15,Bacchus Restaurant & Lounge,49.28232,-123.12281,"Lounges,Venues & Event Spaces,Breakfast & Brunch",4.0,185
15,Glowbal,49.2815627886161,-123.117092920094,"Canadian (New),Venues & Event Spaces,Cocktail Bars",3.0,499
15,Kokoro Tokyo Mazesoba,49.2833927,-123.115078,Japanese,4.0,447
15,JOEY Burrard,49.2827851242953,-123.12316775322,"Canadian (New),Lounges,Steakhouses",4.0,556
15,Tendon Kohaku,49.28107123873706,-123.12179426645872,Japanese,4.5,91
15,Cactus Club Cafe,49.28554081466174,-123.11881637137162,"Canadian (New),Cocktail Bars",4.0,477
15,Reflections Terrace,49.2834361,-123.1192058,"Canadian (New),Tapas/Small Plates,Cocktail Bars",3.5,146
15,Boulevard,49.2827182,-123.123884,"Seafood,Lounges",4.0,281
15,O Sushi,49.2819929953922,-123.119085901441,"Sushi Bars,Japanese",3.5,83
15,Notch8 Restaurant & Bar,49.28383897137475,-123.12050066982682,Bars,3.5,176
15,Incognito Coffee,49.28037,-123.11969,"Coffee & Tea,Sandwiches,Breakfast & Brunch",5.0,173
15,Cactus Club Cafe,49.2895176422553,-123.1181077748714,"Canadian (New),Cocktail Bars",4.0,824
15,The Flying Pig,49.27501,-123.122,"Canadian (New),Seafood",4.0,1290
15,Lupo,49.27823,-123.1174,Italian,4.5,437
15,Alouette Bistro,49.2853,-123.11829,"French,Seafood,Cocktail Bars",4.5,35
15,The Lennox Pub,49.2810599,-123.11969,"Pubs,Irish,Canadian (New)",3.5,137
15,Blue Water Cafe,49.2761945,-123.1209935,Seafood,4.5,1062
15,Guu Original Thurlow,49.2839786648396,-123.125567978574,"Japanese,Tapas Bars",4.0,791
15,Le Crocodile Restaurant,49.2822815356982,-123.124911131657,French,4.5,438
15,Japadog,49.2802668,-123.1184049,"Hot Dogs,Food Stands",4.0,840
15,Jam Cafe on Beatty,49.2802586,-123.1096376,Breakfast & Brunch,4.5,1361
15,Chambar,49.2801460007961,-123.109925328073,Belgian,4.0,1535
15,St. Regis Bar and Grill,49.2830348,-123.1158289,"American (Traditional),Gastropubs",3.0,78
15,Thierry,49.2848818,-123.1228949,"Patisserie/Cake Shop,Cafes,Chocolatiers & Shops",4.0,943
15,The Mexican Antojitos Y Cantina,49.2787726,-123.1240268,Mexican,4.5,402
15,Diva At the Met,49.28391,-123.1185,"Seafood,Canadian (New)",3.5,112
15,Nightingale,49.2874110331456,-123.117770967577,"Live/Raw Food,Canadian (New),Pizza",4.0,474
15,Zaatar W Zeit,49.2844377,-123.1154382,Lebanese,4.0,59
15,1931 Gallery Bistro,49.2830721,-123.1208098,"Breakfast & Brunch,Bistros",3.5,50
15,Paramount Fine Foods,49.2803610180563,-123.118611177157,"Lebanese,Falafel,Pizza",3.5,149
15,Mount Everest Kitchen & Grill,49.28343057225757,-123.1142148824853,"Indian,Himalayan/Nepalese,Noodles",4.5,44
15,Bellagio Cafe,49.2829785794205,-123.121498532105,"Italian,Breakfast & Brunch,Pizza",3.0,226
15,Robba da Matti,49.2753397,-123.1208967,"Italian,Tapas Bars",4.0,491
15,Nuba in Gastown,49.2827625062516,-123.109646101134,"Mediterranean,Lebanese",4.0,745
15,Black & Blue,49.2845587688053,-123.122869190308,"Steakhouses,Desserts,Cocktail Bars",3.5,718
15,Sushi Jin,49.2795794102629,-123.123817518353,"Japanese,Sushi Bars",4.5,137
15,Ramen Gojiro,49.28261,-123.11463,"Ramen,Noodles",3.5,268
15,1927 Lobby Lounge,49.2834188,-123.1187911,"Lounges,Cocktail Bars",4.5,37
15,Shizen Ya,49.2808844,-123.1246278,"Japanese,Sushi Bars,Bars",4.0,586
15,Rodney's Oyster House,49.274326,-123.123131,Seafood,4.0,820
16,Nightingale,49.2874110331456,-123.117770967577,"Live/Raw Food,Canadian (New),Pizza",4.0,474
16,Miku,49.28691753455261,-123.11276314110472,"Japanese,Sushi Bars,Vegetarian",4.5,2198
16,Cactus Club Cafe,49.2895176422553,-123.1181077748714,"Canadian (New),Cocktail Bars",4.0,824
16,Cactus Club Cafe,49.28554081466174,-123.11881637137162,"Canadian (New),Cocktail Bars",4.0,477
16,Botanist,49.2883099,-123.1167271,"Canadian (New),Diners,Breakfast & Brunch",4.5,371
16,Showcase Restaurant & Bar,49.2879858,-123.1204414,"Seafood,Bars",4.0,128
16,Hy's Steakhouse & Cocktail Bar,49.28468,-123.11927,"Steakhouses,Cocktail Bars,Seafood",4.0,341
16,Alouette Bistro,49.2853,-123.11829,"French,Seafood,Cocktail Bars",4.5,35
16,Tap & Barrel - Convention Centre,49.289845529586,-123.116857235515,Comfort Food,4.0,332
16,Joe Fortes Seafood & Chop House,49.28493,-123.12473,"Seafood,Steakhouses",4.0,1237
16,ARC Restaurant,49.2872868,-123.1137298,"Canadian (New),Cocktail Bars",4.0,167
16,Fanny Bay Oyster Bar & Shellfish Market,49.2787525,-123.1138689,"Seafood,Seafood Markets",4.5,750
16,The Lobby Lounge and RawBar,49.28816,-123.11659,"Lounges,Sushi Bars,Piano Bars",4.0,117
16,Moose's Down Under,49.285638,-123.11634,"Pubs,Australian,Comfort Food",4.0,145
16,JOEY Bentall One,49.2864205554373,-123.118409514427,"Canadian (New),Lounges,Steakhouses",3.5,230
16,Hawksworth Restaurant,49.2833971,-123.1191704,Canadian (New),4.0,643
16,Thierry,49.2848818,-123.1228949,"Patisserie/Cake Shop,Cafes,Chocolatiers & Shops",4.0,943
16,Riley's Fish & Steak,49.287641996861865,-123.1151089,"Seafood,Diners,Steakhouses",4.0,48
16,Tableau Bar Bistro,49.287494,-123.1235689,"Bars,Bistros",4.0,275
16,Kamei Royale Japanese Restaurant,49.28736,-123.11887,"Japanese,Sushi Bars",3.5,195
16,Palate Kitchen,49.286331,-123.1157402,"Coffee & Tea,Breakfast & Brunch",4.0,99
16,Hydra Estiatorio,49.2856276,-123.1160679,Mediterranean,3.5,117
16,Five Sails Restaurant,49.2880313351364,-123.113292160758,French,4.5,179
16,Guu Original Thurlow,49.2839786648396,-123.125567978574,"Japanese,Tapas Bars",4.0,791
16,Gotham Steakhouse & Bar,49.2829254,-123.115793,"Steakhouses,Cocktail Bars,Seafood",4.0,420
16,Indian Delicacy,49.28749,-123.12141,Indian,4.5,105
16,JOEY Burrard,49.2827851242953,-123.12316775322,"Canadian (New),Lounges,Steakhouses",4.0,556
16,The Keg Steakhouse + Bar,49.28602851408301,-123.12446573128037,"Steakhouses,Bars,Seafood",4.0,184
16,P2b Bistro & Bar,49.28841000364549,-123.1204978956859,Canadian (New),3.5,83
16,Cardero's Restaurant & Marine Pub,49.2914561357511,-123.127575841549,"Seafood,Cajun/Creole,Canadian (New)",4.0,642
16,The Butcher & Bullock,49.28628,-123.1173056,"Canadian (New),Bars",3.5,105
16,Nuba in Gastown,49.2827625062516,-123.109646101134,"Mediterranean,Lebanese",4.0,745
16,Jam Cafe on Beatty,49.2802586,-123.1096376,Breakfast & Brunch,4.5,1361
16,Forage,49.28707,-123.12925,"Canadian (New),Breakfast & Brunch",4.0,700
16,The Mexican Antojitos Y Cantina,49.2787726,-123.1240268,Mexican,4.5,402
16,Medina Cafe,49.2804429972571,-123.117036269849,"Breakfast & Brunch,Middle Eastern,Wine Bars",4.0,2585
16,Black & Blue,49.2845587688053,-123.122869190308,"Steakhouses,Desserts,Cocktail Bars",3.5,718
16,Mott 32,49.2868644189919,-123.12453512818163,Chinese,4.0,178
16,Pourhouse Restaurant,49.2841134475502,-123.10842879595,"Cocktail Bars,Comfort Food,Burgers",4.0,552
16,Coast Restaurant,49.284914,-123.1234737,Seafood,3.5,599
16,Jinya Ramen Bar - Vancouver,49.2803264,-123.11793569570304,Ramen,4.0,429
16,Ramen Danbo,49.2874959131639,-123.128934167326,"Ramen,Noodles",4.5,581
16,Kokoro Tokyo Mazesoba,49.2833927,-123.115078,Japanese,4.0,447
16,Meat & Bread,49.2872146,-123.1188744,"Sandwiches,Salad,Soup",4.0,213
16,Heritage Asian Eatery,49.2874921,-123.1208077,"Breakfast & Brunch,Asian Fusion,Chinese",3.5,188
16,Mosaic Bar & Grille,49.28526,-123.12075,"Canadian (New),Bars",3.5,102
16,Hello Nori,49.2857029,-123.1262438,"Japanese,Sushi Bars",4.5,192
16,Lupo,49.27823,-123.1174,Italian,4.5,437
16,Captain's Oven Pizza,49.287574432889535,-123.121025,Pizza,4.5,35
16,Caveman Cafe,49.280802324947445,-123.10703500282293,"Organic Stores,Salad,Cafes",4.5,271
17,OEB Breakfast Co. Yaletown,49.2734341,-123.1192724,Breakfast & Brunch,4.5,733
17,The Flying Pig,49.27501,-123.122,"Canadian (New),Seafood",4.0,1290
17,Minami,49.2752733,-123.1207029,"Japanese,Sushi Bars",4.0,751
17,Rodney's Oyster House,49.274326,-123.123131,Seafood,4.0,820
17,Provence Marinaside,49.2733385,-123.1194637,"Seafood,French,Breakfast & Brunch",3.5,360
17,Robba da Matti,49.2753397,-123.1208967,"Italian,Tapas Bars",4.0,491
17,Blue Water Cafe,49.2761945,-123.1209935,Seafood,4.5,1062
17,Fanny Bay Oyster Bar & Shellfish Market,49.2787525,-123.1138689,"Seafood,Seafood Markets",4.5,750
17,MeeT in Yaletown,49.2748495736666,-123.121902530398,"Comfort Food,Gluten-Free,Vegetarian",4.0,163
17,Brix & Mortar,49.27561628359493,-123.1219105,"Wine Bars,Canadian (New),Venues & Event Spaces",4.0,318
17,Cioppino's Mediterranean Grill,49.275522,-123.121794,"Mediterranean,Italian",4.5,197
17,Tasty Indian Bistro,49.2744011,-123.1236818,Indian,4.0,205
17,Elisa,49.2759562,-123.1213608,Steakhouses,4.0,196
17,The Greek By Anatoli,49.276285,-123.1197178,Greek,4.0,254
17,Lupo,49.27823,-123.1174,Italian,4.5,437
17,La Terrazza,49.275002841553594,-123.11867120010272,Italian,3.5,140
17,The Parlour,49.276835,-123.120221,"Pizza,Lounges,Tapas/Small Plates",4.0,463
17,Yaletown Brewing Company,49.2755483,-123.120817,"American (Traditional),Brewpubs",3.0,466
17,The Mexican Antojitos Y Cantina,49.2787726,-123.1240268,Mexican,4.5,402
17,Medina Cafe,49.2804429972571,-123.117036269849,"Breakfast & Brunch,Middle Eastern,Wine Bars",4.0,2585
17,Jam Cafe on Beatty,49.2802586,-123.1096376,Breakfast & Brunch,4.5,1361
17,West Oak Restaurant,49.2764158,-123.1195458,"Seafood,Lounges,Steakhouses",3.5,259
17,Jinya Ramen Bar - Vancouver,49.2803264,-123.11793569570304,Ramen,4.0,429
17,The Keg Steakhouse + Bar - Yaletown,49.27665,-123.11944,"Steakhouses,Bars,Seafood",3.5,290
17,Caveman Cafe,49.280802324947445,-123.10703500282293,"Organic Stores,Salad,Cafes",4.5,271
17,Chambar,49.2801460007961,-123.109925328073,Belgian,4.0,1535
17,Baggio Gelateria & Pizzaeria,49.2736411,-123.1184303,"Italian,Ice Cream & Frozen Yogurt",3.0,59
17,Earls Kitchen + Bar,49.2757248,-123.1205558,"Canadian (New),Cocktail Bars",3.5,262
17,Sushi Jin,49.2795794102629,-123.123817518353,"Japanese,Sushi Bars",4.5,137
17,Angus T,49.2762326068102,-123.119233623147,"Cafes,Bakeries",4.0,93
17,Tacofino,49.2764357,-123.1194951,Mexican,4.0,165
17,Bistro Sakana,49.2752798,-123.1209644,"Japanese,Sushi Bars,Bistros",3.5,133
17,Nightshade,49.27604,-123.12042,"Vegan,Vegetarian",4.5,24
17,Le Crocodile Restaurant,49.2822815356982,-123.124911131657,French,4.5,438
17,Hapa Izakaya,49.2752858645102,-123.12245045952,Japanese,3.5,211
17,TWB The Wine Bar,49.2733612,-123.1194153,Wine Bars,3.5,32
17,Shizen Ya,49.2808844,-123.1246278,"Japanese,Sushi Bars,Bars",4.0,586
17,Burgoo Bistro,49.27968,-123.12763,"Comfort Food,Bistros",4.0,171
17,Black Rice Izakaya,49.278444,-123.114329,"Japanese,Sushi Bars,Tapas Bars",4.0,294
17,Nero Waffles,49.27834403099929,-123.122044653573,"Waffles,Coffee & Tea",4.5,491
17,Mister,49.2751985,-123.121387,Ice Cream & Frozen Yogurt,4.0,281
17,Banter Room,49.2763185,-123.1196683,"Canadian (New),Bars,Breakfast & Brunch",3.5,118
17,Bacchus Restaurant & Lounge,49.28232,-123.12281,"Lounges,Venues & Event Spaces,Breakfast & Brunch",4.0,185
17,Honey Salt,49.2753742,-123.1128477,"Canadian (New),Breakfast & Brunch,Lounges",3.5,266
17,Manoush'eh,49.27667072314417,-123.12570086148996,Mediterranean,5.0,229
17,Little Saigon Yaletown,49.2737438258852,-123.123083556537,Vietnamese,3.5,98
17,The Pawn Shop YVR,49.2781054,-123.1252051,"Desserts,Bars,Mexican",4.0,158
17,Di Beppe,49.28237705581659,-123.10450043738042,Italian,4.0,136
17,Cactus Club Cafe,49.27522297469047,-123.12280441720084,"Canadian (New),Cocktail Bars",3.5,211
17,Hundy,49.27562509135987,-123.1221336,"Burgers,Fast Food,Beer Bar",3.5,72
19,Hawksworth Restaurant,49.2833971,-123.1191704,Canadian (New),4.0,643
19,JOEY Burrard,49.2827851242953,-123.12316775322,"Canadian (New),Lounges,Steakhouses",4.0,556
19,Joe Fortes Seafood & Chop House,49.28493,-123.12473,"Seafood,Steakhouses",4.0,1237
19,Bacchus Restaurant & Lounge,49.28232,-123.12281,"Lounges,Venues & Event Spaces,Breakfast & Brunch",4.0,185
19,Boulevard,49.2827182,-123.123884,"Seafood,Lounges",4.0,281
19,Guu Original Thurlow,49.2839786648396,-123.125567978574,"Japanese,Tapas Bars",4.0,791
19,Thierry,49.2848818,-123.1228949,"Patisserie/Cake Shop,Cafes,Chocolatiers & Shops",4.0,943
19,Le Crocodile Restaurant,49.2822815356982,-123.124911131657,French,4.5,438
19,Black & Blue,49.2845587688053,-123.122869190308,"Steakhouses,Desserts,Cocktail Bars",3.5,718
19,Miku,49.28691753455261,-123.11276314110472,"Japanese,Sushi Bars,Vegetarian",4.5,2198
19,Coast Restaurant,49.284914,-123.1234737,Seafood,3.5,599
19,Hy's Steakhouse & Cocktail Bar,49.28468,-123.11927,"Steakhouses,Cocktail Bars,Seafood",4.0,341
19,Tendon Kohaku,49.28107123873706,-123.12179426645872,Japanese,4.5,91
19,Shizen Ya,49.2808844,-123.1246278,"Japanese,Sushi Bars,Bars",4.0,586
19,Fanny Bay Oyster Bar & Shellfish Market,49.2787525,-123.1138689,"Seafood,Seafood Markets",4.5,750
19,Earls Kitchen + Bar,49.28153637059821,-123.12368905939982,"Canadian (New),Cocktail Bars",3.5,277
19,Guu with Garlic,49.290249,-123.1338142,"Japanese,Tapas/Small Plates",4.5,1048
19,Italian Kitchen,49.2825685,-123.1236112,Italian,3.5,648
19,Salathai Thai Restaurant,49.28221,-123.1238,Thai,3.5,429
19,Pacifico Pizzeria & Ristorante,49.281796224692,-123.123983242799,"Pizza,Italian",3.5,264
19,Zefferelli's,49.28504,-123.1261,"Italian,Bars",4.0,490
19,Cactus Club Cafe,49.28554081466174,-123.11881637137162,"Canadian (New),Cocktail Bars",4.0,477
19,Reflections Terrace,49.2834361,-123.1192058,"Canadian (New),Tapas/Small Plates,Cocktail Bars",3.5,146
19,The Roof,49.2843582,-123.1222877,"Seafood,Steakhouses,Sandwiches",4.0,80
19,Medina Cafe,49.2804429972571,-123.117036269849,"Breakfast & Brunch,Middle Eastern,Wine Bars",4.0,2585
19,Sushi Jin,49.2795794102629,-123.123817518353,"Japanese,Sushi Bars",4.5,137
19,Notch8 Restaurant & Bar,49.28383897137475,-123.12050066982682,Bars,3.5,176
19,Cactus Club Cafe,49.2895176422553,-123.1181077748714,"Canadian (New),Cocktail Bars",4.0,824
19,The Flying Pig,49.27501,-123.122,"Canadian (New),Seafood",4.0,1290
19,Jinya Ramen Bar - Vancouver,49.2803264,-123.11793569570304,Ramen,4.0,429
19,The Mexican Antojitos Y Cantina,49.2787726,-123.1240268,Mexican,4.5,402
19,1931 Gallery Bistro,49.2830721,-123.1208098,"Breakfast & Brunch,Bistros",3.5,50
19,Gyu-Kaku Japanese BBQ,49.28031,-123.12467,"Japanese,Barbeque,Asian Fusion",4.0,391
19,Blue Water Cafe,49.2761945,-123.1209935,Seafood,4.5,1062
19,Gotham Steakhouse & Bar,49.2829254,-123.115793,"Steakhouses,Cocktail Bars,Seafood",4.0,420
19,Bellagio Cafe,49.2829785794205,-123.121498532105,"Italian,Breakfast & Brunch,Pizza",3.0,226
19,Hello Nori,49.2857029,-123.1262438,"Japanese,Sushi Bars",4.5,192
19,Alouette Bistro,49.2853,-123.11829,"French,Seafood,Cocktail Bars",4.5,35
19,Lupo,49.27823,-123.1174,Italian,4.5,437
19,The Keg Steakhouse + Bar,49.28602851408301,-123.12446573128037,"Steakhouses,Bars,Seafood",4.0,184
19,Kosoo,49.28494,-123.12592,"Korean,Barbeque,Soul Food",4.5,89
19,Jam Cafe on Beatty,49.2802586,-123.1096376,Breakfast & Brunch,4.5,1361
19,Nightingale,49.2874110331456,-123.117770967577,"Live/Raw Food,Canadian (New),Pizza",4.0,474
19,Incognito Coffee,49.28037,-123.11969,"Coffee & Tea,Sandwiches,Breakfast & Brunch",5.0,173
19,Rodney's Oyster House,49.274326,-123.123131,Seafood,4.0,820
19,Cavo Bar and Kitchen,49.2801605,-123.1216592,"Bars,Mediterranean",3.5,125
19,Red Robin Gourmet Burgers and Brews,49.28447490793697,-123.12528370183728,"Fast Food,Burgers,Sandwiches",3.5,192
19,Burgoo Bistro,49.27968,-123.12763,"Comfort Food,Bistros",4.0,171
19,The Lennox Pub,49.2810599,-123.11969,"Pubs,Irish,Canadian (New)",3.5,137
19,Forage,49.28707,-123.12925,"Canadian (New),Breakfast & Brunch",4.0,700
24,Miku,49.28691753455261,-123.11276314110472,"Japanese,Sushi Bars,Vegetarian",4.5,2198
24,Nightingale,49.2874110331456,-123.117770967577,"Live/Raw Food,Canadian (New),Pizza",4.0,474
24,Cactus Club Cafe,49.28554081466174,-123.11881637137162,"Canadian (New),Cocktail Bars",4.0,477
24,ARC Restaurant,49.2872868,-123.1137298,"Canadian (New),Cocktail Bars",4.0,167
24,Botanist,49.2883099,-123.1167271,"Canadian (New),Diners,Breakfast & Brunch",4.5,371
24,Hy's Steakhouse & Cocktail Bar,49.28468,-123.11927,"Steakhouses,Cocktail Bars,Seafood",4.0,341
24,Moose's Down Under,49.285638,-123.11634,"Pubs,Australian,Comfort Food",4.0,145
24,Alouette Bistro,49.2853,-123.11829,"French,Seafood,Cocktail Bars",4.5,35
24,Cactus Club Cafe,49.2895176422553,-123.1181077748714,"Canadian (New),Cocktail Bars",4.0,824
24,Hawksworth Restaurant,49.2833971,-123.1191704,Canadian (New),4.0,643
24,Hydra Estiatorio,49.2856276,-123.1160679,Mediterranean,3.5,117
24,Joe Fortes Seafood & Chop House,49.28493,-123.12473,"Seafood,Steakhouses",4.0,1237
24,Fanny Bay Oyster Bar & Shellfish Market,49.2787525,-123.1138689,"Seafood,Seafood Markets",4.5,750
24,Kokoro Tokyo Mazesoba,49.2833927,-123.115078,Japanese,4.0,447
24,Riley's Fish & Steak,49.287641996861865,-123.1151089,"Seafood,Diners,Steakhouses",4.0,48
24,The Lobby Lounge and RawBar,49.28816,-123.11659,"Lounges,Sushi Bars,Piano Bars",4.0,117
24,Zaatar W Zeit,49.2844377,-123.1154382,Lebanese,4.0,59
24,JOEY Bentall One,49.2864205554373,-123.118409514427,"Canadian (New),Lounges,Steakhouses",3.5,230
24,Gotham Steakhouse & Bar,49.2829254,-123.115793,"Steakhouses,Cocktail Bars,Seafood",4.0,420
24,Browns Crafthouse Seymour,49.2841724124811,-123.113347974687,"Beer Bar,Canadian (New)",4.0,44
24,Tap & Barrel - Convention Centre,49.289845529586,-123.116857235515,Comfort Food,4.0,332
24,Palate Kitchen,49.286331,-123.1157402,"Coffee & Tea,Breakfast & Brunch",4.0,99
24,Five Sails Restaurant,49.2880313351364,-123.113292160758,French,4.5,179
24,The Keg Steakhouse + Bar - Dunsmuir,49.283455277246034,-123.11635967248964,"Seafood,Steakhouses,Bars",4.0,179
24,Showcase Restaurant & Bar,49.2879858,-123.1204414,"Seafood,Bars",4.0,128
24,The Butcher & Bullock,49.28628,-123.1173056,"Canadian (New),Bars",3.5,105
24,Joyeaux Cafe & Restaurant,49.28477337898,-123.116895498202,"Vietnamese,Sandwiches,Breakfast & Brunch",3.5,225
24,Medina Cafe,49.2804429972571,-123.117036269849,"Breakfast & Brunch,Middle Eastern,Wine Bars",4.0,2585
24,Guu Original Thurlow,49.2839786648396,-123.125567978574,"Japanese,Tapas Bars",4.0,791
24,Jam Cafe on Beatty,49.2802586,-123.1096376,Breakfast & Brunch,4.5,1361
24,JOEY Burrard,49.2827851242953,-123.12316775322,"Canadian (New),Lounges,Steakhouses",4.0,556
24,Mount Everest Kitchen & Grill,49.28343057225757,-123.1142148824853,"Indian,Himalayan/Nepalese,Noodles",4.5,44
24,Nuba in Gastown,49.2827625062516,-123.109646101134,"Mediterranean,Lebanese",4.0,745
24,Thierry,49.2848818,-123.1228949,"Patisserie/Cake Shop,Cafes,Chocolatiers & Shops",4.0,943
24,Rogue Kitchen & Wetbar,49.28534134027417,-123.11143693120827,"American (Traditional),Gastropubs",3.5,395
24,Kamei Royale Japanese Restaurant,49.28736,-123.11887,"Japanese,Sushi Bars",3.5,195
24,Chambar,49.2801460007961,-123.109925328073,Belgian,4.0,1535
24,Diva At the Met,49.28391,-123.1185,"Seafood,Canadian (New)",3.5,112
24,Gyoza Bar,49.2841553,-123.1143602,"Ramen,Tapas/Small Plates",3.5,325
24,Lupo,49.27823,-123.1174,Italian,4.5,437
24,Jinya Ramen Bar - Vancouver,49.2803264,-123.11793569570304,Ramen,4.0,429
24,The Mexican Antojitos Y Cantina,49.2787726,-123.1240268,Mexican,4.5,402
24,Tableau Bar Bistro,49.287494,-123.1235689,"Bars,Bistros",4.0,275
24,One Under,49.2846904,-123.1145086,"Sports Bars,Canadian (New)",4.0,40
24,Pourhouse Restaurant,49.2841134475502,-123.10842879595,"Cocktail Bars,Comfort Food,Burgers",4.0,552
24,Breka Bakery & Cafe,49.28560815156999,-123.1150907,"Bakeries,Desserts,Donuts",4.5,40
24,Forage,49.28707,-123.12925,"Canadian (New),Breakfast & Brunch",4.0,700
24,Twisted Fork,49.283194,-123.104445,"French,Breakfast & Brunch",4.0,1099
24,The Keg Steakhouse + Bar,49.28602851408301,-123.12446573128037,"Steakhouses,Bars,Seafood",4.0,184
24,Caveman Cafe,49.280802324947445,-123.10703500282293,"Organic Stores,Salad,Cafes",4.5,271
25,Fanny Bay Oyster Bar & Shellfish Market,49.2787525,-123.1138689,"Seafood,Seafood Markets",4.5,750
25,Medina Cafe,49.2804429972571,-123.117036269849,"Breakfast & Brunch,Middle Eastern,Wine Bars",4.0,2585
25,Lupo,49.27823,-123.1174,Italian,4.5,437
25,Jinya Ramen Bar - Vancouver,49.2803264,-123.11793569570304,Ramen,4.0,429
25,Miku,49.28691753455261,-123.11276314110472,"Japanese,Sushi Bars,Vegetarian",4.5,2198
25,Black Rice Izakaya,49.278444,-123.114329,"Japanese,Sushi Bars,Tapas Bars",4.0,294
25,Maruhachi Ra-Men,49.27854065320407,-123.1157914,Ramen,4.0,256
25,Glowbal,49.2815627886161,-123.117092920094,"Canadian (New),Venues & Event Spaces,Cocktail Bars",3.0,499
25,Per Se Social Corner,49.2785831916346,-123.118480343303,"Pizza,Cafes,Italian",3.5,239
25,Straight Outta Brooklyn NYC Pizzeria,49.2791165,-123.1166227,"Pizza,Italian",4.0,231
25,Blue Water Cafe,49.2761945,-123.1209935,Seafood,4.5,1062
25,Hawksworth Restaurant,49.2833971,-123.1191704,Canadian (New),4.0,643
25,The Flying Pig,49.27501,-123.122,"Canadian (New),Seafood",4.0,1290
25,Gotham Steakhouse & Bar,49.2829254,-123.115793,"Steakhouses,Cocktail Bars,Seafood",4.0,420
25,Tutto,49.2784091,-123.1187139,"Italian,Bars",4.5,50
25,Japadog,49.2802668,-123.1184049,"Hot Dogs,Food Stands",4.0,840
25,Jam Cafe on Beatty,49.2802586,-123.1096376,Breakfast & Brunch,4.5,1361
25,Homer St. Cafe and Bar,49.2783665,-123.1182373,Canadian (New),3.5,346
25,Incognito Coffee,49.28037,-123.11969,"Coffee & Tea,Sandwiches,Breakfast & Brunch",5.0,173
25,Chambar,49.2801460007961,-123.109925328073,Belgian,4.0,1535
25,Joe Fortes Seafood & Chop House,49.28493,-123.12473,"Seafood,Steakhouses",4.0,1237
25,District Bar & Restaurant,49.2777057046774,-123.114148463454,"Cocktail Bars,Beer Bar,Burgers",4.0,91
25,Browns Socialhouse QE Theatre,49.28022,-123.11287,"Burgers,Pubs",4.0,39
25,Le Petit Belge,49.2789656680049,-123.116212114692,"Bakeries,Breakfast & Brunch,Belgian",4.0,344
25,Frankie's Italian Kitchen,49.2779493,-123.1137363,"Italian,Wine Bars,Breakfast & Brunch",3.5,152
25,Rodney's Oyster House,49.274326,-123.123131,Seafood,4.0,820
25,Minami,49.2752733,-123.1207029,"Japanese,Sushi Bars",4.0,751
25,The Mexican Antojitos Y Cantina,49.2787726,-123.1240268,Mexican,4.5,402
25,The Parlour,49.276835,-123.120221,"Pizza,Lounges,Tapas/Small Plates",4.0,463
25,Hy's Steakhouse & Cocktail Bar,49.28468,-123.11927,"Steakhouses,Cocktail Bars,Seafood",4.0,341
25,Paramount Fine Foods,49.2803610180563,-123.118611177157,"Lebanese,Falafel,Pizza",3.5,149
25,Hendricks Resto-Lounge,49.27984,-123.11688,"Lounges,Breakfast & Brunch,Dinner Theater",4.0,24
25,Uva Wine & Cocktail Bar,49.27946,-123.12045,"Wine Bars,Italian,Cocktail Bars",4.0,205
25,JOEY Burrard,49.2827851242953,-123.12316775322,"Canadian (New),Lounges,Steakhouses",4.0,556
25,Nuba in Gastown,49.2827625062516,-123.109646101134,"Mediterranean,Lebanese",4.0,745
25,Kokoro Tokyo Mazesoba,49.2833927,-123.115078,Japanese,4.0,447
25,OEB Breakfast Co. Yaletown,49.2734341,-123.1192724,Breakfast & Brunch,4.5,733
25,Guu Original Thurlow,49.2839786648396,-123.125567978574,"Japanese,Tapas Bars",4.0,791
25,Robba da Matti,49.2753397,-123.1208967,"Italian,Tapas Bars",4.0,491
25,Tendon Kohaku,49.28107123873706,-123.12179426645872,Japanese,4.5,91
25,Cibo Trattoria,49.27946,-123.12045,Italian,3.5,132
25,The Lennox Pub,49.2810599,-123.11969,"Pubs,Irish,Canadian (New)",3.5,137
25,Cactus Club Cafe,49.28554081466174,-123.11881637137162,"Canadian (New),Cocktail Bars",4.0,477
25,Pourhouse Restaurant,49.2841134475502,-123.10842879595,"Cocktail Bars,Comfort Food,Burgers",4.0,552
25,Caveman Cafe,49.280802324947445,-123.10703500282293,"Organic Stores,Salad,Cafes",4.5,271
25,Nightingale,49.2874110331456,-123.117770967577,"Live/Raw Food,Canadian (New),Pizza",4.0,474
25,Twisted Fork,49.283194,-123.104445,"French,Breakfast & Brunch",4.0,1099
25,Le Crocodile Restaurant,49.2822815356982,-123.124911131657,French,4.5,438
25,Sushi Jin,49.2795794102629,-123.123817518353,"Japanese,Sushi Bars",4.5,137
25,Boulevard,49.2827182,-123.123884,"Seafood,Lounges",4.0,281
26,Fanny Bay Oyster Bar & Shellfish Market,49.2787525,-123.1138689,"Seafood,Seafood Markets",4.5,750
26,Lupo,49.27823,-123.1174,Italian,4.5,437
26,Black Rice Izakaya,49.278444,-123.114329,"Japanese,Sushi Bars,Tapas Bars",4.0,294
26,Medina Cafe,49.2804429972571,-123.117036269849,"Breakfast & Brunch,Middle Eastern,Wine Bars",4.0,2585
26,District Bar & Restaurant,49.2777057046774,-123.114148463454,"Cocktail Bars,Beer Bar,Burgers",4.0,91
26,Maruhachi Ra-Men,49.27854065320407,-123.1157914,Ramen,4.0,256
26,Frankie's Italian Kitchen,49.2779493,-123.1137363,"Italian,Wine Bars,Breakfast & Brunch",3.5,152
26,The Flying Pig,49.27501,-123.122,"Canadian (New),Seafood",4.0,1290
26,Honey Salt,49.2753742,-123.1128477,"Canadian (New),Breakfast & Brunch,Lounges",3.5,266
26,Blue Water Cafe,49.2761945,-123.1209935,Seafood,4.5,1062
26,The Victor,49.27540569887477,-123.1121986054184,"Steakhouses,Seafood",3.5,241
26,Chambar,49.2801460007961,-123.109925328073,Belgian,4.0,1535
26,Jam Cafe on Beatty,49.2802586,-123.1096376,Breakfast & Brunch,4.5,1361
26,Straight Outta Brooklyn NYC Pizzeria,49.2791165,-123.1166227,"Pizza,Italian",4.0,231
26,Le Petit Belge,49.2789656680049,-123.116212114692,"Bakeries,Breakfast & Brunch,Belgian",4.0,344
26,Jinya Ramen Bar - Vancouver,49.2803264,-123.11793569570304,Ramen,4.0,429
26,Minami,49.2752733,-123.1207029,"Japanese,Sushi Bars",4.0,751
26,Rodney's Oyster House,49.274326,-123.123131,Seafood,4.0,820
26,Joe Fortes Seafood & Chop House,49.28493,-123.12473,"Seafood,Steakhouses",4.0,1237
26,Homer St. Cafe and Bar,49.2783665,-123.1182373,Canadian (New),3.5,346
26,OEB Breakfast Co. Yaletown,49.2734341,-123.1192724,Breakfast & Brunch,4.5,733
26,The Parlour,49.276835,-123.120221,"Pizza,Lounges,Tapas/Small Plates",4.0,463
26,Gotham Steakhouse & Bar,49.2829254,-123.115793,"Steakhouses,Cocktail Bars,Seafood",4.0,420
26,Robba da Matti,49.2753397,-123.1208967,"Italian,Tapas Bars",4.0,491
26,Browns Socialhouse QE Theatre,49.28022,-123.11287,"Burgers,Pubs",4.0,39
26,Nuba in Gastown,49.2827625062516,-123.109646101134,"Mediterranean,Lebanese",4.0,745
26,The Mexican Antojitos Y Cantina,49.2787726,-123.1240268,Mexican,4.5,402
26,Hawksworth Restaurant,49.2833971,-123.1191704,Canadian (New),4.0,643
26,Frankie's Jazz Club,49.2779493,-123.1137363,"Italian,Jazz & Blues,Breakfast & Brunch",4.0,48
26,Per Se Social Corner,49.2785831916346,-123.118480343303,"Pizza,Cafes,Italian",3.5,239
26,Tutto,49.2784091,-123.1187139,"Italian,Bars",4.5,50
26,Guu Original Thurlow,49.2839786648396,-123.125567978574,"Japanese,Tapas Bars",4.0,791
26,The Greek By Anatoli,49.276285,-123.1197178,Greek,4.0,254
26,Caveman Cafe,49.280802324947445,-123.10703500282293,"Organic Stores,Salad,Cafes",4.5,271
26,Pourhouse Restaurant,49.2841134475502,-123.10842879595,"Cocktail Bars,Comfort Food,Burgers",4.0,552
26,The Keg Steakhouse + Bar - Yaletown,49.27665,-123.11944,"Steakhouses,Bars,Seafood",3.5,290
26,Sushi Jin,49.2795794102629,-123.123817518353,"Japanese,Sushi Bars",4.5,137
26,Hy's Steakhouse & Cocktail Bar,49.28468,-123.11927,"Steakhouses,Cocktail Bars,Seafood",4.0,341
26,Brix & Mortar,49.27561628359493,-123.1219105,"Wine Bars,Canadian (New),Venues & Event Spaces",4.0,318
26,Chinatown BBQ,49.280294,-123.1015,"Chinese,Barbeque",4.5,261
26,Tasty Indian Bistro,49.2744011,-123.1236818,Indian,4.0,205
26,Pizzeria Ludica,49.2800427277576,-123.108486811639,"Pizza,Italian,Tabletop Games",4.0,184
26,Le Crocodile Restaurant,49.2822815356982,-123.124911131657,French,4.5,438
26,West Oak Restaurant,49.2764158,-123.1195458,"Seafood,Lounges,Steakhouses",3.5,259
26,Twisted Fork,49.283194,-123.104445,"French,Breakfast & Brunch",4.0,1099
26,JOEY Burrard,49.2827851242953,-123.12316775322,"Canadian (New),Lounges,Steakhouses",4.0,556
26,Nero Waffles,49.27834403099929,-123.122044653573,"Waffles,Coffee & Tea",4.5,491
26,Cioppino's Mediterranean Grill,49.275522,-123.121794,"Mediterranean,Italian",4.5,197
26,Cactus Club Cafe,49.28554081466174,-123.11881637137162,"Canadian (New),Cocktail Bars",4.0,477
26,Kokoro Tokyo Mazesoba,49.2833927,-123.115078,Japanese,4.0,447
27,Fanny Bay Oyster Bar & Shellfish Market,49.2787525,-123.1138689,"Seafood,Seafood Markets",4.5,750
27,The Flying Pig,49.27501,-123.122,"Canadian (New),Seafood",4.0,1290
27,Lupo,49.27823,-123.1174,Italian,4.5,437
27,Minami,49.2752733,-123.1207029,"Japanese,Sushi Bars",4.0,751
27,The Parlour,49.276835,-123.120221,"Pizza,Lounges,Tapas/Small Plates",4.0,463
27,Blue Water Cafe,49.2761945,-123.1209935,Seafood,4.5,1062
27,Robba da Matti,49.2753397,-123.1208967,"Italian,Tapas Bars",4.0,491
27,The Greek By Anatoli,49.276285,-123.1197178,Greek,4.0,254
27,OEB Breakfast Co. Yaletown,49.2734341,-123.1192724,Breakfast & Brunch,4.5,733
27,West Oak Restaurant,49.2764158,-123.1195458,"Seafood,Lounges,Steakhouses",3.5,259
27,Rodney's Oyster House,49.274326,-123.123131,Seafood,4.0,820
27,The Keg Steakhouse + Bar - Yaletown,49.27665,-123.11944,"Steakhouses,Bars,Seafood",3.5,290
27,Honey Salt,49.2753742,-123.1128477,"Canadian (New),Breakfast & Brunch,Lounges",3.5,266
27,Tacofino,49.2764357,-123.1194951,Mexican,4.0,165
27,Brix & Mortar,49.27561628359493,-123.1219105,"Wine Bars,Canadian (New),Venues & Event Spaces",4.0,318
27,Banter Room,49.2763185,-123.1196683,"Canadian (New),Bars,Breakfast & Brunch",3.5,118
27,Cioppino's Mediterranean Grill,49.275522,-123.121794,"Mediterranean,Italian",4.5,197
27,Yaletown Brewing Company,49.2755483,-123.120817,"American (Traditional),Brewpubs",3.0,466
27,Black Rice Izakaya,49.278444,-123.114329,"Japanese,Sushi Bars,Tapas Bars",4.0,294
27,Elisa,49.2759562,-123.1213608,Steakhouses,4.0,196
27,Medina Cafe,49.2804429972571,-123.117036269849,"Breakfast & Brunch,Middle Eastern,Wine Bars",4.0,2585
27,District Bar & Restaurant,49.2777057046774,-123.114148463454,"Cocktail Bars,Beer Bar,Burgers",4.0,91
27,La Terrazza,49.275002841553594,-123.11867120010272,Italian,3.5,140
27,Jinya Ramen Bar - Vancouver,49.2803264,-123.11793569570304,Ramen,4.0,429
27,Jam Cafe on Beatty,49.2802586,-123.1096376,Breakfast & Brunch,4.5,1361
27,Provence Marinaside,49.2733385,-123.1194637,"Seafood,French,Breakfast & Brunch",3.5,360
27,Earls Kitchen + Bar,49.2757248,-123.1205558,"Canadian (New),Cocktail Bars",3.5,262
27,MeeT in Yaletown,49.2748495736666,-123.121902530398,"Comfort Food,Gluten-Free,Vegetarian",4.0,163
27,Chambar,49.2801460007961,-123.109925328073,Belgian,4.0,1535
27,Maruhachi Ra-Men,49.27854065320407,-123.1157914,Ramen,4.0,256
27,Angus T,49.2762326068102,-123.119233623147,"Cafes,Bakeries",4.0,93
27,Tasty Indian Bistro,49.2744011,-123.1236818,Indian,4.0,205
27,The Mexican Antojitos Y Cantina,49.2787726,-123.1240268,Mexican,4.5,402
27,Homer St. Cafe and Bar,49.2783665,-123.1182373,Canadian (New),3.5,346
27,Nightshade,49.27604,-123.12042,"Vegan,Vegetarian",4.5,24
27,Tutto,49.2784091,-123.1187139,"Italian,Bars",4.5,50
27,The Victor,49.27540569887477,-123.1121986054184,"Steakhouses,Seafood",3.5,241
27,Ignite Pizzeria,49.27724,-123.11858,Pizza,5.0,19
27,Guu Original Thurlow,49.2839786648396,-123.125567978574,"Japanese,Tapas Bars",4.0,791
27,Gotham Steakhouse & Bar,49.2829254,-123.115793,"Steakhouses,Cocktail Bars,Seafood",4.0,420
27,Per Se Social Corner,49.2785831916346,-123.118480343303,"Pizza,Cafes,Italian",3.5,239
27,Straight Outta Brooklyn NYC Pizzeria,49.2791165,-123.1166227,"Pizza,Italian",4.0,231
27,Hawksworth Restaurant,49.2833971,-123.1191704,Canadian (New),4.0,643
27,Nuba in Gastown,49.2827625062516,-123.109646101134,"Mediterranean,Lebanese",4.0,745
27,Caveman Cafe,49.280802324947445,-123.10703500282293,"Organic Stores,Salad,Cafes",4.5,271
27,Sushi Jin,49.2795794102629,-123.123817518353,"Japanese,Sushi Bars",4.5,137
27,Nero Waffles,49.27834403099929,-123.122044653573,"Waffles,Coffee & Tea",4.5,491
27,Hy's Steakhouse & Cocktail Bar,49.28468,-123.11927,"Steakhouses,Cocktail Bars,Seafood",4.0,341
27,Pourhouse Restaurant,49.2841134475502,-123.10842879595,"Cocktail Bars,Comfort Food,Burgers",4.0,552
27,Le Petit Belge,49.2789656680049,-123.116212114692,"Bakeries,Breakfast & Brunch,Belgian",4.0,344
30,Twisted Fork,49.283194,-123.104445,"French,Breakfast & Brunch",4.0,1099
30,Six Acres,49.2833119,-123.1044042,"Pubs,Canadian (New)",4.0,288
30,Caveman Cafe,49.280802324947445,-123.10703500282293,"Organic Stores,Salad,Cafes",4.5,271
30,Jules French Bistro,49.28361,-123.10638,French,4.0,227
30,Miku,49.28691753455261,-123.11276314110472,"Japanese,Sushi Bars,Vegetarian",4.5,2198
30,MeeT in Gastown,49.28343624826065,-123.1048494822089,"Comfort Food,Burgers,Breakfast & Brunch",4.0,492
30,Pourhouse Restaurant,49.2841134475502,-123.10842879595,"Cocktail Bars,Comfort Food,Burgers",4.0,552
30,L'Abattoir,49.2831869855333,-123.104450140894,"French,Canadian (New),Breakfast & Brunch",4.0,578
30,PiDGiN,49.2819071402452,-123.104188653967,"Japanese,Korean,French",4.0,320
30,La Casita,49.2830484880298,-123.1069048188,Mexican,3.0,281
30,Di Beppe,49.28237705581659,-123.10450043738042,Italian,4.0,136
30,Rodney's Oyster House,49.2831349,-123.1030172,"Seafood,Cajun/Creole",4.0,252
30,Local Public Eatery,49.2835742,-123.1039517,Gastropubs,4.0,141
30,Nuba in Gastown,49.2827625062516,-123.109646101134,"Mediterranean,Lebanese",4.0,745
30,Gringo,49.2831553214634,-123.105335897068,"Mexican,Bars,Tex-Mex",4.5,282
30,Black Frog Eatery,49.284598,-123.108687,"Pubs,American (Traditional)",4.0,214
30,Kozak Ukraïnian Eatery,49.282664039944194,-123.1046473704731,Ukrainian,4.5,30
30,Salt Tasting Room,49.28049,-123.09912,"Wine Bars,Tapas/Small Plates",4.0,504
30,The Old Spaghetti Factory,49.2838595,-123.1055048,Italian,3.5,299
30,Water Street Cafe,49.2842264,-123.1090181,"Italian,Seafood,Cocktail Bars",3.5,310
30,Fanny Bay Oyster Bar & Shellfish Market,49.2787525,-123.1138689,"Seafood,Seafood Markets",4.5,750
30,Jam Cafe on Beatty,49.2802586,-123.1096376,Breakfast & Brunch,4.5,1361
30,Chambar,49.2801460007961,-123.109925328073,Belgian,4.0,1535
30,Tacofino,49.28279,-123.10478,Mexican,3.5,452
30,Phnom Penh,49.278431,-123.098205,"Cambodian,Vietnamese",4.0,1597
30,Calabash Bistro,49.281004479966,-123.104228199529,Caribbean,4.0,285
30,Tsuki Sushi Bar,49.2809829711914,-123.10765838623,"Sushi Bars,Japanese",4.0,196
30,Pizzeria Ludica,49.2800427277576,-123.108486811639,"Pizza,Italian,Tabletop Games",4.0,184
30,La Taqueria Pinche Taco Shop,49.282912,-123.110593,"Mexican,Cocktail Bars",4.5,521
30,Meat & Bread,49.2826255017147,-123.109336831057,"Sandwiches,Soup,Salad",4.0,785
30,Silvestre Deli & Bistro,49.2845603,-123.1092822,Peruvian,4.0,57
30,The Lamplighter Public House,49.28370467625183,-123.106238,"Pubs,Dance Clubs",3.0,267
30,Brioche Ristorante & Catering,49.28414647905835,-123.1069093,Italian,4.0,235
30,Chinatown BBQ,49.280294,-123.1015,"Chinese,Barbeque",4.5,261
30,Cactus Club Cafe,49.2895176422553,-123.1181077748714,"Canadian (New),Cocktail Bars",4.0,824
30,Tokyo In April,49.2806813,-123.1073936,Japanese,4.5,51
30,Clough Club,49.2836213274416,-123.106336267409,"Lounges,Tapas/Small Plates",3.5,97
30,Guu with Otokomae,49.2847191,-123.11038556296398,"Japanese,Tapas Bars",4.0,378
30,St Lawrence Restaurant,49.2832584031253,-123.097993419888,French,4.5,140
30,Gotham Steakhouse & Bar,49.2829254,-123.115793,"Steakhouses,Cocktail Bars,Seafood",4.0,420
30,Al Porto,49.28467,-123.10927,"Italian,Pizza,Wine Bars",3.5,238
30,Steamworks Brewing Company,49.28498,-123.11084,"Pubs,Canadian (New),Breweries",3.5,792
30,El Furniture Warehouse - Hastings,49.28219,-123.10861,"Bars,Comfort Food,American (Traditional)",3.0,150
30,Monarca,49.28378619999999,-123.1044645,Mexican,4.0,23
30,Waffleland Cafe,49.2834917,-123.1050237,"Waffles,Cafes,Coffee & Tea",4.0,28
30,Nemesis Coffee,49.28281595985871,-123.11027107703038,Cafes,4.5,217
30,Vegan Cave Cafe,49.2818532,-123.1074474,"Pizza,Vegan",4.5,51
30,Devil's Elbow Ale & Smoke House,49.2801437,-123.1098099,"Gastropubs,Barbeque,Smokehouse",3.5,194
30,Lupo,49.27823,-123.1174,Italian,4.5,437
30,Alibi Room,49.284201944511,-123.1001915385,"Pubs,Canadian (New),Gastropubs",4.5,566
32,Kingyo,49.29061,-123.13714,"Japanese,Tapas/Small Plates",4.5,1068
32,Guu with Garlic,49.290249,-123.1338142,"Japanese,Tapas/Small Plates",4.5,1048
32,España Restaurant,49.2880552,-123.1404114,Spanish,4.0,249
32,Noah's Cafe,49.28827635407216,-123.1400279,"Japanese,Tapas Bars,Cocktail Bars",4.5,34
32,Peaked Pies,49.2896489,-123.1384797,"Australian,Bakeries,Fast Food",4.5,197
32,Legendary Noodle House,49.2883958,-123.13983,"Chinese,Noodles",3.5,230
32,Cactus Club Cafe,49.28689653721021,-123.14273036,"Canadian (New),Cocktail Bars",3.5,327
32,Zakkushi on Denman,49.29108,-123.13643,"Japanese,Tapas/Small Plates,Barbeque",4.0,252
32,Hokkaido Ramen Santouka,49.290236,-123.133811,"Ramen,Noodles",4.0,990
32,Maruhachi Ra-men,49.2905691,-123.1333951,Ramen,4.5,757
32,The Park Pub,49.28694973954,-123.141087285986,Gastropubs,3.5,67
32,Café Portrait,49.2881056129168,-123.140413686633,"Cafes,Breakfast & Brunch,Coffee Roasteries",4.5,46
32,Saku,49.289254,-123.1323215264761,Japanese,4.5,338
32,Beeryani Indian Bistro & Bar,49.28724,-123.14124,Indian,4.5,35
32,Robba da Matti West End,49.29172,-123.13857,"Italian,Mediterranean,Wine Bars",4.0,71
32,Hook Restaurant,49.2870144,-123.1419204,"Seafood,Beer, Wine & Spirits",3.5,120
32,Arike Restaurant,49.2868046,-123.1408561,"African,Cocktail Bars,Canadian (New)",5.0,25
32,Ofra’s Kitchen,49.2882676,-123.140038,"Middle Eastern,Vegan,Vegetarian",4.5,42
32,Dinesty Dumpling House,49.2908176,-123.1343912,"Chinese,Bubble Tea,Dumplings",4.0,930
32,Forage,49.28707,-123.12925,"Canadian (New),Breakfast & Brunch",4.0,700
32,Tavola,49.2918164,-123.1357186,Italian,4.5,364
32,Cardero's Restaurant & Marine Pub,49.2914561357511,-123.127575841549,"Seafood,Cajun/Creole,Canadian (New)",4.0,642
32,Bella Gelateria,49.2865973,-123.14110231288184,"Desserts,Ice Cream & Frozen Yogurt",4.0,890
32,Won More Szechuan Cuisine,49.28723,-123.14144,Chinese,4.0,78
32,Guu Original Thurlow,49.2839786648396,-123.125567978574,"Japanese,Tapas Bars",4.0,791
32,Ramen Danbo,49.2874959131639,-123.128934167326,"Ramen,Noodles",4.5,581
32,Tom Sushi,49.2815608,-123.1327476,"Sushi Bars,Japanese",4.5,196
32,Damso Modern Korean Cuisine,49.290631652856824,-123.13696164681824,"Korean,Asian Fusion,Breakfast & Brunch",4.0,203
32,93 Coffee,49.28853156299956,-123.1392191,Cafes,5.0,7
32,Olympia Restaurant,49.2891023,-123.1387641,"Pizza,Greek",3.0,146
32,Score on Davie,49.2823221457395,-123.134614739512,"Sports Bars,Breakfast & Brunch,American (Traditional)",4.5,349
32,The Red Accordion,49.29025,-123.131768,"Cocktail Bars,Tapas/Small Plates",4.5,72
32,The Bayside Lounge,49.2872637779389,-123.141529972897,"Lounges,Breakfast & Brunch,Cocktail Bars",3.5,105
32,Nero Waffles,49.2907208,-123.1339952,"Desserts,Breakfast & Brunch,Waffles",4.5,656
32,Papi's Seafood and Oyster Bar,49.2877438,-123.1413624,Seafood,3.5,56
32,Ong Ba,49.2895502300818,-123.138065747917,Vietnamese,4.0,20
32,La Catrina Tacos,49.2878472,-123.1411949,Mexican,4.5,119
32,Nook,49.2917554,-123.1352974,"Italian,Pizza",4.5,307
32,Vonns,49.28724,-123.14124,Burgers,4.5,33
32,Nat's New York Pizzeria,49.28829,-123.13985,Pizza,3.5,96
32,Sura Korean Cuisine,49.2888601838143,-123.131742169312,Korean,4.0,428
32,The Three Brits Public House,49.2871042,-123.1418124,Pubs,3.5,103
32,Ukrainian Village,49.2914123,-123.1358196,Ukrainian,4.0,170
32,Jingle Bao,49.291609,-123.134917,"Asian Fusion,Noodles,Dim Sum",4.0,153
32,Big Bang Sushi,49.2883087715973,-123.140502534807,"Japanese,Sushi Bars",4.5,14
32,Hello Nori,49.2857029,-123.1262438,"Japanese,Sushi Bars",4.5,192
32,Burgoo Bistro,49.27968,-123.12763,"Comfort Food,Bistros",4.0,171
32,Sylvia's Restaurant and Lounge,49.28864,-123.14242,"Canadian (New),Lounges",3.0,89
32,Zefferelli's,49.28504,-123.1261,"Italian,Bars",4.0,490
32,Mediterranean Grill,49.2876155,-123.1410038,"Greek,Mediterranean",3.0,120
34,Cactus Club Cafe,49.2895176422553,-123.1181077748714,"Canadian (New),Cocktail Bars",4.0,824
34,Tableau Bar Bistro,49.287494,-123.1235689,"Bars,Bistros",4.0,275
34,Miku,49.28691753455261,-123.11276314110472,"Japanese,Sushi Bars,Vegetarian",4.5,2198
34,Showcase Restaurant & Bar,49.2879858,-123.1204414,"Seafood,Bars",4.0,128
34,Joe Fortes Seafood & Chop House,49.28493,-123.12473,"Seafood,Steakhouses",4.0,1237
34,Guu with Garlic,49.290249,-123.1338142,"Japanese,Tapas/Small Plates",4.5,1048
34,Mott 32,49.2868644189919,-123.12453512818163,Chinese,4.0,178
34,Cardero's Restaurant & Marine Pub,49.2914561357511,-123.127575841549,"Seafood,Cajun/Creole,Canadian (New)",4.0,642
34,Nightingale,49.2874110331456,-123.117770967577,"Live/Raw Food,Canadian (New),Pizza",4.0,474
34,Tap & Barrel - Convention Centre,49.289845529586,-123.116857235515,Comfort Food,4.0,332
34,JOS,49.2890737079158,-123.122008477632,"Pizza,Italian",4.0,47
34,Forage,49.28707,-123.12925,"Canadian (New),Breakfast & Brunch",4.0,700
34,Botanist,49.2883099,-123.1167271,"Canadian (New),Diners,Breakfast & Brunch",4.5,371
34,The Keg Steakhouse + Bar,49.28602851408301,-123.12446573128037,"Steakhouses,Bars,Seafood",4.0,184
34,Prestons Restaurant + Lounge Vancouver,49.2882192,-123.1222259,Lounges,3.0,103
34,Hy's Steakhouse & Cocktail Bar,49.28468,-123.11927,"Steakhouses,Cocktail Bars,Seafood",4.0,341
34,Indian Delicacy,49.28749,-123.12141,Indian,4.5,105
34,Guu Original Thurlow,49.2839786648396,-123.125567978574,"Japanese,Tapas Bars",4.0,791
34,Cactus Club Cafe,49.28554081466174,-123.11881637137162,"Canadian (New),Cocktail Bars",4.0,477
34,Hawksworth Restaurant,49.2833971,-123.1191704,Canadian (New),4.0,643
34,Ramen Danbo,49.2874959131639,-123.128934167326,"Ramen,Noodles",4.5,581
34,P2b Bistro & Bar,49.28841000364549,-123.1204978956859,Canadian (New),3.5,83
34,Thierry,49.2848818,-123.1228949,"Patisserie/Cake Shop,Cafes,Chocolatiers & Shops",4.0,943
34,Hello Nori,49.2857029,-123.1262438,"Japanese,Sushi Bars",4.5,192
34,Kamei Royale Japanese Restaurant,49.28736,-123.11887,"Japanese,Sushi Bars",3.5,195
34,Maruhachi Ra-men,49.2905691,-123.1333951,Ramen,4.5,757
34,Jam Cafe on Beatty,49.2802586,-123.1096376,Breakfast & Brunch,4.5,1361
34,ARC Restaurant,49.2872868,-123.1137298,"Canadian (New),Cocktail Bars",4.0,167
34,JOEY Burrard,49.2827851242953,-123.12316775322,"Canadian (New),Lounges,Steakhouses",4.0,556
34,Nuba in Gastown,49.2827625062516,-123.109646101134,"Mediterranean,Lebanese",4.0,745
34,Yui Japanese Bistro,49.287111,-123.1247016,"Japanese,Sushi Bars",4.0,124
34,Heritage Asian Eatery,49.2874921,-123.1208077,"Breakfast & Brunch,Asian Fusion,Chinese",3.5,188
34,Gotham Steakhouse & Bar,49.2829254,-123.115793,"Steakhouses,Cocktail Bars,Seafood",4.0,420
34,Tom Sushi,49.2815608,-123.1327476,"Sushi Bars,Japanese",4.5,196
34,Saku,49.289254,-123.1323215264761,Japanese,4.5,338
34,Captain's Oven Pizza,49.287574432889535,-123.121025,Pizza,4.5,35
34,Zefferelli's,49.28504,-123.1261,"Italian,Bars",4.0,490
34,Le Crocodile Restaurant,49.2822815356982,-123.124911131657,French,4.5,438
34,Pourhouse Restaurant,49.2841134475502,-123.10842879595,"Cocktail Bars,Comfort Food,Burgers",4.0,552
34,Score on Davie,49.2823221457395,-123.134614739512,"Sports Bars,Breakfast & Brunch,American (Traditional)",4.5,349
34,Five Sails Restaurant,49.2880313351364,-123.113292160758,French,4.5,179
34,Chambar,49.2801460007961,-123.109925328073,Belgian,4.0,1535
34,Medina Cafe,49.2804429972571,-123.117036269849,"Breakfast & Brunch,Middle Eastern,Wine Bars",4.0,2585
34,Horin Tonkotsu Ramen ,49.28617,-123.12749,Ramen,4.0,151
34,Jinya Ramen Bar - Vancouver,49.2803264,-123.11793569570304,Ramen,4.0,429
34,Black & Blue,49.2845587688053,-123.122869190308,"Steakhouses,Desserts,Cocktail Bars",3.5,718
34,The Red Accordion,49.29025,-123.131768,"Cocktail Bars,Tapas/Small Plates",4.5,72
34,Boulevard,49.2827182,-123.123884,"Seafood,Lounges",4.0,281
34,Alouette Bistro,49.2853,-123.11829,"French,Seafood,Cocktail Bars",4.5,35
34,Shizen Ya,49.2808844,-123.1246278,"Japanese,Sushi Bars,Bars",4.0,586
37,Shizen Ya,49.2808844,-123.1246278,"Japanese,Sushi Bars,Bars",4.0,586
37,Sushi Jin,49.2795794102629,-123.123817518353,"Japanese,Sushi Bars",4.5,137
37,Burgoo Bistro,49.27968,-123.12763,"Comfort Food,Bistros",4.0,171
37,JOEY Burrard,49.2827851242953,-123.12316775322,"Canadian (New),Lounges,Steakhouses",4.0,556
37,The Mexican Antojitos Y Cantina,49.2787726,-123.1240268,Mexican,4.5,402
37,Gyu-Kaku Japanese BBQ,49.28031,-123.12467,"Japanese,Barbeque,Asian Fusion",4.0,391
37,Le Crocodile Restaurant,49.2822815356982,-123.124911131657,French,4.5,438
37,Bacchus Restaurant & Lounge,49.28232,-123.12281,"Lounges,Venues & Event Spaces,Breakfast & Brunch",4.0,185
37,Boulevard,49.2827182,-123.123884,"Seafood,Lounges",4.0,281
37,Miku,49.28691753455261,-123.11276314110472,"Japanese,Sushi Bars,Vegetarian",4.5,2198
37,Tendon Kohaku,49.28107123873706,-123.12179426645872,Japanese,4.5,91
37,Guu Original Thurlow,49.2839786648396,-123.125567978574,"Japanese,Tapas Bars",4.0,791
37,Joe Fortes Seafood & Chop House,49.28493,-123.12473,"Seafood,Steakhouses",4.0,1237
37,Fanny Bay Oyster Bar & Shellfish Market,49.2787525,-123.1138689,"Seafood,Seafood Markets",4.5,750
37,Earls Kitchen + Bar,49.28153637059821,-123.12368905939982,"Canadian (New),Cocktail Bars",3.5,277
37,The Pawn Shop YVR,49.2781054,-123.1252051,"Desserts,Bars,Mexican",4.0,158
37,Salathai Thai Restaurant,49.28221,-123.1238,Thai,3.5,429
37,Pacifico Pizzeria & Ristorante,49.281796224692,-123.123983242799,"Pizza,Italian",3.5,264
37,The Flying Pig,49.27501,-123.122,"Canadian (New),Seafood",4.0,1290
37,Haraheri,49.280074,-123.125225,"Japanese,Tapas Bars",3.5,263
37,Italian Kitchen,49.2825685,-123.1236112,Italian,3.5,648
37,Hawksworth Restaurant,49.2833971,-123.1191704,Canadian (New),4.0,643
37,Blue Water Cafe,49.2761945,-123.1209935,Seafood,4.5,1062
37,Relish Gastropub and Bar,49.2802714,-123.1248883,"Gastropubs,Canadian (New)",3.5,101
37,Cavo Bar and Kitchen,49.2801605,-123.1216592,"Bars,Mediterranean",3.5,125
37,The Templeton,49.2785261,-123.1243982,"Breakfast & Brunch,Burgers,Tapas/Small Plates",4.0,528
37,Nero Waffles,49.27834403099929,-123.122044653573,"Waffles,Coffee & Tea",4.5,491
37,Jinya Ramen Bar - Vancouver,49.2803264,-123.11793569570304,Ramen,4.0,429
37,Rodney's Oyster House,49.274326,-123.123131,Seafood,4.0,820
37,Cactus Club Cafe,49.2895176422553,-123.1181077748714,"Canadian (New),Cocktail Bars",4.0,824
37,Burger Crush,49.27977707759172,-123.12350184856516,Burgers,4.5,19
37,Medina Cafe,49.2804429972571,-123.117036269849,"Breakfast & Brunch,Middle Eastern,Wine Bars",4.0,2585
37,The Refinery,49.2781499,-123.12529,"Wine Bars,Gluten-Free,Tapas/Small Plates",4.0,155
37,Fat Mao Noodles,49.2799016,-123.1272458,"Noodles,Thai",4.5,41
37,Lupo,49.27823,-123.1174,Italian,4.5,437
37,Minami,49.2752733,-123.1207029,"Japanese,Sushi Bars",4.0,751
37,Hy's Steakhouse & Cocktail Bar,49.28468,-123.11927,"Steakhouses,Cocktail Bars,Seafood",4.0,341
37,Zefferelli's,49.28504,-123.1261,"Italian,Bars",4.0,490
37,Tom Sushi,49.2815608,-123.1327476,"Sushi Bars,Japanese",4.5,196
37,OEB Breakfast Co. Yaletown,49.2734341,-123.1192724,Breakfast & Brunch,4.5,733
37,Thierry,49.2848818,-123.1228949,"Patisserie/Cake Shop,Cafes,Chocolatiers & Shops",4.0,943
37,Robba da Matti,49.2753397,-123.1208967,"Italian,Tapas Bars",4.0,491
37,Gotham Steakhouse & Bar,49.2829254,-123.115793,"Steakhouses,Cocktail Bars,Seafood",4.0,420
37,One Saigon,49.2808775,-123.1246714,"Vietnamese,Noodles",3.5,82
37,Fritz European Fry House,49.2772045,-123.1265253,"Fast Food,Poutineries,Modern European",4.0,808
37,Forage,49.28707,-123.12925,"Canadian (New),Breakfast & Brunch",4.0,700
37,Fresh Donair,49.2792016361722,-123.12335201658,"Donairs,Middle Eastern",4.5,37
37,Incognito Coffee,49.28037,-123.11969,"Coffee & Tea,Sandwiches,Breakfast & Brunch",5.0,173
37,Brunch,49.2778182,-123.1254634,Breakfast & Brunch,4.5,37
37,The Parlour,49.276835,-123.120221,"Pizza,Lounges,Tapas/Small Plates",4.0,463
39,Burgoo Bistro,49.27968,-123.12763,"Comfort Food,Bistros",4.0,171
39,Shizen Ya,49.2808844,-123.1246278,"Japanese,Sushi Bars,Bars",4.0,586
39,Gyu-Kaku Japanese BBQ,49.28031,-123.12467,"Japanese,Barbeque,Asian Fusion",4.0,391
39,The Mexican Antojitos Y Cantina,49.2787726,-123.1240268,Mexican,4.5,402
39,Sushi Jin,49.2795794102629,-123.123817518353,"Japanese,Sushi Bars",4.5,137
39,The Pawn Shop YVR,49.2781054,-123.1252051,"Desserts,Bars,Mexican",4.0,158
39,Le Crocodile Restaurant,49.2822815356982,-123.124911131657,French,4.5,438
39,Joe Fortes Seafood & Chop House,49.28493,-123.12473,"Seafood,Steakhouses",4.0,1237
39,Sushi Mugen,49.2786508,-123.1282232,"Sushi Bars,Japanese,Salad",4.0,112
39,Banana Leaf,49.28001,-123.13009,"Malaysian,Singaporean",3.5,240
39,Fanny Bay Oyster Bar & Shellfish Market,49.2787525,-123.1138689,"Seafood,Seafood Markets",4.5,750
39,Blue Water Cafe,49.2761945,-123.1209935,Seafood,4.5,1062
39,The Flying Pig,49.27501,-123.122,"Canadian (New),Seafood",4.0,1290
39,Tom Sushi,49.2815608,-123.1327476,"Sushi Bars,Japanese",4.5,196
39,Haraheri,49.280074,-123.125225,"Japanese,Tapas Bars",3.5,263
39,Fat Mao Noodles,49.2799016,-123.1272458,"Noodles,Thai",4.5,41
39,Guu Original Thurlow,49.2839786648396,-123.125567978574,"Japanese,Tapas Bars",4.0,791
39,JOEY Burrard,49.2827851242953,-123.12316775322,"Canadian (New),Lounges,Steakhouses",4.0,556
39,Gurkha Himalayan Kitchen,49.2811737,-123.1321411,"Himalayan/Nepalese,Noodles,Cocktail Bars",4.0,193
39,Fritz European Fry House,49.2772045,-123.1265253,"Fast Food,Poutineries,Modern European",4.0,808
39,Rodney's Oyster House,49.274326,-123.123131,Seafood,4.0,820
39,The Refinery,49.2781499,-123.12529,"Wine Bars,Gluten-Free,Tapas/Small Plates",4.0,155
39,Relish Gastropub and Bar,49.2802714,-123.1248883,"Gastropubs,Canadian (New)",3.5,101
39,Boulevard,49.2827182,-123.123884,"Seafood,Lounges",4.0,281
39,The Templeton,49.2785261,-123.1243982,"Breakfast & Brunch,Burgers,Tapas/Small Plates",4.0,528
39,Number E Food,49.277569151917,-123.131018212403,"Sandwiches,Coffee & Tea",5.0,138
39,Maxine's Cafe & Bar,49.27807,-123.13131,"Bars,Breakfast & Brunch,Cafes",4.5,76
39,Bacchus Restaurant & Lounge,49.28232,-123.12281,"Lounges,Venues & Event Spaces,Breakfast & Brunch",4.0,185
39,Happy Noodle House,49.27664,-123.12578,"Dim Sum,Noodles",4.5,82
39,Brunch,49.2778182,-123.1254634,Breakfast & Brunch,4.5,37
39,Lupo,49.27823,-123.1174,Italian,4.5,437
39,Breka Bakery & Cafe,49.2784333930687,-123.127897942266,"Coffee & Tea,Bakeries,Patisserie/Cake Shop",4.0,324
39,Firecrust,49.2777868,-123.1274639,"Pizza,Salad,Italian",4.0,142
39,Robba da Matti,49.2753397,-123.1208967,"Italian,Tapas Bars",4.0,491
39,Cazba,49.2806129,-123.1312714,Persian/Iranian,3.5,241
39,Manoush'eh,49.27667072314417,-123.12570086148996,Mediterranean,5.0,229
39,OEB Breakfast Co. Yaletown,49.2734341,-123.1192724,Breakfast & Brunch,4.5,733
39,Hawksworth Restaurant,49.2833971,-123.1191704,Canadian (New),4.0,643
39,Tendon Kohaku,49.28107123873706,-123.12179426645872,Japanese,4.5,91
39,Minami,49.2752733,-123.1207029,"Japanese,Sushi Bars",4.0,751
39,Forage,49.28707,-123.12925,"Canadian (New),Breakfast & Brunch",4.0,700
39,Medina Cafe,49.2804429972571,-123.117036269849,"Breakfast & Brunch,Middle Eastern,Wine Bars",4.0,2585
39,Nero Waffles,49.27834403099929,-123.122044653573,"Waffles,Coffee & Tea",4.5,491
39,Honeybrew,49.27787,-123.12652,"Bistros,Cafes,Breakfast & Brunch",4.0,31
39,Hy's Steakhouse & Cocktail Bar,49.28468,-123.11927,"Steakhouses,Cocktail Bars,Seafood",4.0,341
39,Jinya Ramen Bar - Vancouver,49.2803264,-123.11793569570304,Ramen,4.0,429
39,Honolulu Coffee,49.27995355525173,-123.1250129,"Coffee & Tea,Bakeries",4.5,155
39,Score on Davie,49.2823221457395,-123.134614739512,"Sports Bars,Breakfast & Brunch,American (Traditional)",4.5,349
39,Giardino,49.276991,-123.1301021,Italian,4.0,123
39,Ancora Waterfront Dining and Patio,49.273853456158875,-123.13257765112428,"Seafood,Japanese,Peruvian",4.0,218
44,Linh Cafe,49.2746716,-123.12989802,"Vietnamese,French",4.0,301
44,Rodney's Oyster House,49.274326,-123.123131,Seafood,4.0,820
44,The Flying Pig,49.27501,-123.122,"Canadian (New),Seafood",4.0,1290
44,Tasty Indian Bistro,49.2744011,-123.1236818,Indian,4.0,205
44,Kaide Sushi,49.2742161,-123.1270679,Sushi Bars,4.5,238
44,Fanny Bay Oyster Bar & Shellfish Market,49.2787525,-123.1138689,"Seafood,Seafood Markets",4.5,750
44,Blue Water Cafe,49.2761945,-123.1209935,Seafood,4.5,1062
44,Ancora Waterfront Dining and Patio,49.273853456158875,-123.13257765112428,"Seafood,Japanese,Peruvian",4.0,218
44,Minami,49.2752733,-123.1207029,"Japanese,Sushi Bars",4.0,751
44,OEB Breakfast Co. Yaletown,49.2734341,-123.1192724,Breakfast & Brunch,4.5,733
44,Happy Noodle House,49.27664,-123.12578,"Dim Sum,Noodles",4.5,82
44,Robba da Matti,49.2753397,-123.1208967,"Italian,Tapas Bars",4.0,491
44,Brix & Mortar,49.27561628359493,-123.1219105,"Wine Bars,Canadian (New),Venues & Event Spaces",4.0,318
44,The Mexican Antojitos Y Cantina,49.2787726,-123.1240268,Mexican,4.5,402
44,MeeT in Yaletown,49.2748495736666,-123.121902530398,"Comfort Food,Gluten-Free,Vegetarian",4.0,163
44,Manoush'eh,49.27667072314417,-123.12570086148996,Mediterranean,5.0,229
44,Lupo,49.27823,-123.1174,Italian,4.5,437
44,Cioppino's Mediterranean Grill,49.275522,-123.121794,"Mediterranean,Italian",4.5,197
44,Little Saigon Yaletown,49.2737438258852,-123.123083556537,Vietnamese,3.5,98
44,Tom Sushi,49.2815608,-123.1327476,"Sushi Bars,Japanese",4.5,196
44,Nuba in Yaletown,49.27592284071101,-123.1245237819059,"Mediterranean,Middle Eastern,Vegetarian",4.0,102
44,Sushi Jin,49.2795794102629,-123.123817518353,"Japanese,Sushi Bars",4.5,137
44,Score on Davie,49.2823221457395,-123.134614739512,"Sports Bars,Breakfast & Brunch,American (Traditional)",4.5,349
44,Shizen Ya,49.2808844,-123.1246278,"Japanese,Sushi Bars,Bars",4.0,586
44,Medina Cafe,49.2804429972571,-123.117036269849,"Breakfast & Brunch,Middle Eastern,Wine Bars",4.0,2585
44,Fritz European Fry House,49.2772045,-123.1265253,"Fast Food,Poutineries,Modern European",4.0,808
44,Jinya Ramen Bar - Vancouver,49.2803264,-123.11793569570304,Ramen,4.0,429
44,Number E Food,49.277569151917,-123.131018212403,"Sandwiches,Coffee & Tea",5.0,138
44,The Pawn Shop YVR,49.2781054,-123.1252051,"Desserts,Bars,Mexican",4.0,158
44,Elisa,49.2759562,-123.1213608,Steakhouses,4.0,196
44,Burgoo Bistro,49.27968,-123.12763,"Comfort Food,Bistros",4.0,171
44,The Parlour,49.276835,-123.120221,"Pizza,Lounges,Tapas/Small Plates",4.0,463
44,Long Table Distillery,49.27586,-123.1326,"Distilleries,Cocktail Bars,Food Tours",4.5,102
44,Giardino,49.276991,-123.1301021,Italian,4.0,123
44,Le Crocodile Restaurant,49.2822815356982,-123.124911131657,French,4.5,438
44,Ki-Isu Japanese Restaurant,49.2737478,-123.1232254,"Japanese,Sushi Bars",3.5,119
44,Hapa Izakaya,49.2752858645102,-123.12245045952,Japanese,3.5,211
44,The Sandbar Seafood Restaurant,49.271502,-123.134151,"Seafood,Sushi Bars,Music Venues",3.5,709
44,Cactus Club Cafe,49.27522297469047,-123.12280441720084,"Canadian (New),Cocktail Bars",3.5,211
44,Basil Pasta Bar,49.2765809,-123.1255818,Italian,3.5,398
44,Nero Waffles,49.27834403099929,-123.122044653573,"Waffles,Coffee & Tea",4.5,491
44,Bacchus Restaurant & Lounge,49.28232,-123.12281,"Lounges,Venues & Event Spaces,Breakfast & Brunch",4.0,185
44,Provence Marinaside,49.2733385,-123.1194637,"Seafood,French,Breakfast & Brunch",3.5,360
44,Gurkha Himalayan Kitchen,49.2811737,-123.1321411,"Himalayan/Nepalese,Noodles,Cocktail Bars",4.0,193
44,Maxine's Cafe & Bar,49.27807,-123.13131,"Bars,Breakfast & Brunch,Cafes",4.5,76
44,The Greek By Anatoli,49.276285,-123.1197178,Greek,4.0,254
44,Gyu-Kaku Japanese BBQ,49.28031,-123.12467,"Japanese,Barbeque,Asian Fusion",4.0,391
44,The Morrissey Pub,49.2769058,-123.1268211,"Pubs,Irish",3.5,171
44,Black Rice Izakaya,49.278444,-123.114329,"Japanese,Sushi Bars,Tapas Bars",4.0,294
44,Yaletown Brewing Company,49.2755483,-123.120817,"American (Traditional),Brewpubs",3.0,466
47,Kingyo,49.29061,-123.13714,"Japanese,Tapas/Small Plates",4.5,1068
47,Guu with Garlic,49.290249,-123.1338142,"Japanese,Tapas/Small Plates",4.5,1048
47,España Restaurant,49.2880552,-123.1404114,Spanish,4.0,249
47,Cactus Club Cafe,49.28689653721021,-123.14273036,"Canadian (New),Cocktail Bars",3.5,327
47,Maruhachi Ra-men,49.2905691,-123.1333951,Ramen,4.5,757
47,Peaked Pies,49.2896489,-123.1384797,"Australian,Bakeries,Fast Food",4.5,197
47,Noah's Cafe,49.28827635407216,-123.1400279,"Japanese,Tapas Bars,Cocktail Bars",4.5,34
47,Tom Sushi,49.2815608,-123.1327476,"Sushi Bars,Japanese",4.5,196
47,Sylvia's Restaurant and Lounge,49.28864,-123.14242,"Canadian (New),Lounges",3.0,89
47,Saku,49.289254,-123.1323215264761,Japanese,4.5,338
47,Score on Davie,49.2823221457395,-123.134614739512,"Sports Bars,Breakfast & Brunch,American (Traditional)",4.5,349
47,Robba da Matti West End,49.29172,-123.13857,"Italian,Mediterranean,Wine Bars",4.0,71
47,Zakkushi on Denman,49.29108,-123.13643,"Japanese,Tapas/Small Plates,Barbeque",4.0,252
47,Legendary Noodle House,49.2883958,-123.13983,"Chinese,Noodles",3.5,230
47,Tavola,49.2918164,-123.1357186,Italian,4.5,364
47,Hokkaido Ramen Santouka,49.290236,-123.133811,"Ramen,Noodles",4.0,990
47,Café Portrait,49.2881056129168,-123.140413686633,"Cafes,Breakfast & Brunch,Coffee Roasteries",4.5,46
47,The Red Accordion,49.29025,-123.131768,"Cocktail Bars,Tapas/Small Plates",4.5,72
47,The Park Pub,49.28694973954,-123.141087285986,Gastropubs,3.5,67
47,Papi's Seafood and Oyster Bar,49.2877438,-123.1413624,Seafood,3.5,56
47,Hook Restaurant,49.2870144,-123.1419204,"Seafood,Beer, Wine & Spirits",3.5,120
47,Dinesty Dumpling House,49.2908176,-123.1343912,"Chinese,Bubble Tea,Dumplings",4.0,930
47,Beeryani Indian Bistro & Bar,49.28724,-123.14124,Indian,4.5,35
47,Ofra’s Kitchen,49.2882676,-123.140038,"Middle Eastern,Vegan,Vegetarian",4.5,42
47,Won More Szechuan Cuisine,49.28723,-123.14144,Chinese,4.0,78
47,Gurkha Himalayan Kitchen,49.2811737,-123.1321411,"Himalayan/Nepalese,Noodles,Cocktail Bars",4.0,193
47,Jingle Bao,49.291609,-123.134917,"Asian Fusion,Noodles,Dim Sum",4.0,153
47,Bella Gelateria,49.2865973,-123.14110231288184,"Desserts,Ice Cream & Frozen Yogurt",4.0,890
47,La Catrina Tacos,49.2878472,-123.1411949,Mexican,4.5,119
47,Sura Korean Cuisine,49.2888601838143,-123.131742169312,Korean,4.0,428
47,Arike Restaurant,49.2868046,-123.1408561,"African,Cocktail Bars,Canadian (New)",5.0,25
47,Nook,49.2917554,-123.1352974,"Italian,Pizza",4.5,307
47,Nero Waffles,49.2907208,-123.1339952,"Desserts,Breakfast & Brunch,Waffles",4.5,656
47,Davie Dosa Company,49.28227,-123.13382,Indian,4.0,195
47,The Bayside Lounge,49.2872637779389,-123.141529972897,"Lounges,Breakfast & Brunch,Cocktail Bars",3.5,105
47,Stanley Park,49.2978842,-123.1308093,Parks,5.0,1085
47,The Three Brits Public House,49.2871042,-123.1418124,Pubs,3.5,103
47,La Belle Patate,49.2820547306569,-123.133442922354,"Fast Food,Poutineries",4.0,544
47,Vonns,49.28724,-123.14124,Burgers,4.5,33
47,Ukrainian Village,49.2914123,-123.1358196,Ukrainian,4.0,170
47,Big Bang Sushi,49.2883087715973,-123.140502534807,"Japanese,Sushi Bars",4.5,14
47,Noodle Arts,49.29111,-123.13431,"Chinese,Noodles",4.0,73
47,CRAFT Beer Market,49.2864807,-123.142214,"Beer Bar,Breakfast & Brunch,American (Traditional)",4.0,36
47,Tetsu Sushi Bar,49.2917758,-123.1352662,"Japanese,Sushi Bars",4.5,102
47,Damso Modern Korean Cuisine,49.290631652856824,-123.13696164681824,"Korean,Asian Fusion,Breakfast & Brunch",4.0,203
47,Frying Pan,49.28835486722387,-123.1404394134939,"Korean,Sandwiches,Waffles",4.5,27
47,Sushi Bar Maumi,49.28140774465,-123.133695908427,"Japanese,Sushi Bars",4.0,172
47,PappaRoti,49.2889087,-123.1312063,"Coffee & Tea,Juice Bars & Smoothies,Sandwiches",4.0,255
47,Kosoo Restaurant,49.2890856,-123.1326402,"Korean,Asian Fusion",3.5,167
47,Tabom,49.288992,-123.131971,"Korean,Vegetarian,Asian Fusion",4.0,102
48,Guu with Garlic,49.290249,-123.1338142,"Japanese,Tapas/Small Plates",4.5,1048
48,Kingyo,49.29061,-123.13714,"Japanese,Tapas/Small Plates",4.5,1068
48,Forage,49.28707,-123.12925,"Canadian (New),Breakfast & Brunch",4.0,700
48,Tom Sushi,49.2815608,-123.1327476,"Sushi Bars,Japanese",4.5,196
48,Score on Davie,49.2823221457395,-123.134614739512,"Sports Bars,Breakfast & Brunch,American (Traditional)",4.5,349
48,Joe Fortes Seafood & Chop House,49.28493,-123.12473,"Seafood,Steakhouses",4.0,1237
48,Ramen Danbo,49.2874959131639,-123.128934167326,"Ramen,Noodles",4.5,581
48,Saku,49.289254,-123.1323215264761,Japanese,4.5,338
48,Maruhachi Ra-men,49.2905691,-123.1333951,Ramen,4.5,757
48,Guu Original Thurlow,49.2839786648396,-123.125567978574,"Japanese,Tapas Bars",4.0,791
48,La Belle Patate,49.2820547306569,-123.133442922354,"Fast Food,Poutineries",4.0,544
48,Blue Water Cafe,49.2761945,-123.1209935,Seafood,4.5,1062
48,Davie Dosa Company,49.28227,-123.13382,Indian,4.0,195
48,Sura Korean Cuisine,49.2888601838143,-123.131742169312,Korean,4.0,428
48,Hokkaido Ramen Santouka,49.290236,-123.133811,"Ramen,Noodles",4.0,990
48,Cardero's Restaurant & Marine Pub,49.2914561357511,-123.127575841549,"Seafood,Cajun/Creole,Canadian (New)",4.0,642
48,The Mexican Antojitos Y Cantina,49.2787726,-123.1240268,Mexican,4.5,402
48,Greenhorn Cafe,49.2866689,-123.1341521,"Cafes,Breakfast & Brunch",4.0,168
48,Kinara Indian Cuisine,49.2831201857873,-123.135653703493,Indian,4.0,37
48,Hello Nori,49.2857029,-123.1262438,"Japanese,Sushi Bars",4.5,192
48,The Red Accordion,49.29025,-123.131768,"Cocktail Bars,Tapas/Small Plates",4.5,72
48,Le Crocodile Restaurant,49.2822815356982,-123.124911131657,French,4.5,438
48,Zefferelli's,49.28504,-123.1261,"Italian,Bars",4.0,490
48,Horin Tonkotsu Ramen ,49.28617,-123.12749,Ramen,4.0,151
48,Gurkha Himalayan Kitchen,49.2811737,-123.1321411,"Himalayan/Nepalese,Noodles,Cocktail Bars",4.0,193
48,JOEY Burrard,49.2827851242953,-123.12316775322,"Canadian (New),Lounges,Steakhouses",4.0,556
48,Burgoo Bistro,49.27968,-123.12763,"Comfort Food,Bistros",4.0,171
48,Tavola,49.2918164,-123.1357186,Italian,4.5,364
48,Zakkushi on Denman,49.29108,-123.13643,"Japanese,Tapas/Small Plates,Barbeque",4.0,252
48,The Keg Steakhouse + Bar,49.28602851408301,-123.12446573128037,"Steakhouses,Bars,Seafood",4.0,184
48,Sushi Bar Maumi,49.28140774465,-123.133695908427,"Japanese,Sushi Bars",4.0,172
48,Shizen Ya,49.2808844,-123.1246278,"Japanese,Sushi Bars,Bars",4.0,586
48,Boulevard,49.2827182,-123.123884,"Seafood,Lounges",4.0,281
48,Dinesty Dumpling House,49.2908176,-123.1343912,"Chinese,Bubble Tea,Dumplings",4.0,930
48,Sushi Jin,49.2795794102629,-123.123817518353,"Japanese,Sushi Bars",4.5,137
48,Tableau Bar Bistro,49.287494,-123.1235689,"Bars,Bistros",4.0,275
48,CinCin Ristorante + Bar,49.28516,-123.1263,"Italian,Bars",4.0,416
48,Peaked Pies,49.2896489,-123.1384797,"Australian,Bakeries,Fast Food",4.5,197
48,España Restaurant,49.2880552,-123.1404114,Spanish,4.0,249
48,Bacchus Restaurant & Lounge,49.28232,-123.12281,"Lounges,Venues & Event Spaces,Breakfast & Brunch",4.0,185
48,Kosoo Restaurant,49.2890856,-123.1326402,"Korean,Asian Fusion",3.5,167
48,Kosoo,49.28494,-123.12592,"Korean,Barbeque,Soul Food",4.5,89
48,Manoush'eh,49.27667072314417,-123.12570086148996,Mediterranean,5.0,229
48,Nero Waffles,49.2907208,-123.1339952,"Desserts,Breakfast & Brunch,Waffles",4.5,656
48,Mary's on Davie,49.28177,-123.13378,Diners,4.0,67
48,Mott 32,49.2868644189919,-123.12453512818163,Chinese,4.0,178
48,Tabom,49.288992,-123.131971,"Korean,Vegetarian,Asian Fusion",4.0,102
48,Jingle Bao,49.291609,-123.134917,"Asian Fusion,Noodles,Dim Sum",4.0,153
48,Number E Food,49.277569151917,-123.131018212403,"Sandwiches,Coffee & Tea",5.0,138
48,Thierry,49.2848818,-123.1228949,"Patisserie/Cake Shop,Cafes,Chocolatiers & Shops",4.0,943
50,Tom Sushi,49.2815608,-123.1327476,"Sushi Bars,Japanese",4.5,196
50,La Belle Patate,49.2820547306569,-123.133442922354,"Fast Food,Poutineries",4.0,544
50,Joe Fortes Seafood & Chop House,49.28493,-123.12473,"Seafood,Steakhouses",4.0,1237
50,Kingyo,49.29061,-123.13714,"Japanese,Tapas/Small Plates",4.5,1068
50,Guu with Garlic,49.290249,-123.1338142,"Japanese,Tapas/Small Plates",4.5,1048
50,Gurkha Himalayan Kitchen,49.2811737,-123.1321411,"Himalayan/Nepalese,Noodles,Cocktail Bars",4.0,193
50,Score on Davie,49.2823221457395,-123.134614739512,"Sports Bars,Breakfast & Brunch,American (Traditional)",4.5,349
50,Forage,49.28707,-123.12925,"Canadian (New),Breakfast & Brunch",4.0,700
50,Davie Dosa Company,49.28227,-123.13382,Indian,4.0,195
